[
  {
    "name":"Google I/O extended Nyeri",
    "link":"https://plus.google.com/events/cdiq7556b8t8rurchklc7g6att4",
    "lat":-0.394003,
    "lng":36.961806
  },
  {
    "name":"I/O Extended Madrid",
    "link":"https://plus.google.com/b/112952310970563894279/events/cucmdbni6pdhqq725bsemqht81c",
    "lat":40.401982,
    "lng":-3.608424
  },
  {
    "name":"Google I/O Extended | CinemaLab - Thessaloniki",
    "link":"https://plus.google.com/u/0/b/103424383114732336071/events/cf2s8r7emd52n29bn7q9tifu9lg",
    "lat":40.62878,
    "lng":22.9556
  },
  {
    "name":"Google I/O Extended 2014 Goa",
    "link":"https://plus.google.com/events/c9m65f4p808eniaornukond7b4s",
    "lat":15.275044,
    "lng":73.915215
  },
  {
    "name":"I/O Extended 2014 at Google Fiber",
    "link":"https://plus.google.com/u/1/events/c660neas2lf6nj2244ie5b68ems?authkey=CNi-oePOs5uXtAE",
    "lat":39.050382,
    "lng":-94.607057
  },
  {
    "name":"Bucharest Google I/O Extended 25-26 Iunie 2014",
    "link":"https://plus.google.com/b/112968068864186499076/events/c3mv1r9qesbkbce5cc56gq7v01o",
    "lat":44.435752,
    "lng":26.047736
  },
  {
    "name":"Google I/O Extended Kota Kinabalu 2014",
    "link":"https://plus.google.com/events/c0v95n2me2i4gq9ioaij0lur8vc",
    "lat":5.981947,
    "lng":116.075992
  },
  {
    "name":"I/O Extended Southern Idaho",
    "link":"https://plus.google.com/events/cg51afspihug1hv7ihuseo3bho0",
    "lat":42.572115,
    "lng":-114.452564
  },
  {
    "name":"Google I/O Extended Strasbourg",
    "link":"https://plus.google.com/u/0/events/cqoqpic8bglamkpiui8fakg2mrk",
    "lat":48.5837896,
    "lng":7.7495988
  },
  {
    "name":"Google I/O'14",
    "link":"https://plus.google.com/events/c7o6mkhc3gu4ub31d6k2lb3ontk",
    "lat":37.197232,
    "lng":-3.624283
  },
  {
    "name":"Google I/O Extended Kyoto",
    "link":"https://plus.google.com/events/c7ikvuml8jkv6h78eoc32bfetss",
    "lat":35.025699,
    "lng":135.751147
  },
  {
    "name":"Google I/O Extended 2014",
    "link":"https://plus.google.com/b/113797247425590541674/events/cjkcdcdj5vc94lk0raj2aoil5hk",
    "lat":49.712241,
    "lng":16.261899
  },
  {
    "name":"GDG Ekiti IO'14 Extended",
    "link":"https://plus.google.com/b/110463793540880663642/events/cqm9re9h6ifhv5t3a8vmda095a4",
    "lat":7.7108853,
    "lng":5.2532727
  },
  {
    "name":"Google I/O Extended 2014",
    "link":"https://plus.google.com/b/104550553343399000979/events/cevj6e97irnr37o20poi5oaksns?authkey=CPGW79XUsbnWqwE",
    "lat":12.9539974,
    "lng":77.6309395
  },
  {
    "name":"Google I/O Extended at Agosto",
    "link":"https://plus.google.com/u/0/b/100147281925652152724/events/cjsh86493ebm5qja41k54cl53l8?authkey=CKn2ub2emp7yBg",
    "lat":44.983877,
    "lng":-93.278031
  },
  {
    "name":"GDG Chlef I/O Extended",
    "link":"https://plus.google.com/u/0/b/115722350155081068544/events/cc8h70dal606fb8cn8va4mstr4c",
    "lat":36.161145,
    "lng":1.333742
  },
  {
    "name":"Google I/O Extended at The Nerdery",
    "link":"https://plus.google.com/u/0/events/c9eid6q6gn4jhvvc9v7j2uusk9c",
    "lat":44.830872,
    "lng":-93.29988
  },
  {
    "name":"GDG Kosice - I/O Extended",
    "link":"https://plus.google.com/events/c5aqa8mqdc940q8uts0875d70mo",
    "lat":48.695331,
    "lng":21.236728
  },
  {
    "name":"GDGPhoenix IO Extended",
    "link":"https://plus.google.com/events/chfg866ahad3c076cd688j706a8",
    "lat":33.44794,
    "lng":-112.059263
  },
  {
    "name":"Google I/O Extended Tlemcen 2014",
    "link":"https://plus.google.com/u/0/b/114922920527535447518/events/ccrpbu6jjk2on0gpfr9adlobtm0",
    "lat":34.878375,
    "lng":-1.312512
  },
  {
    "name":"Google I/O Extended Bordj 2014",
    "link":"https://plus.google.com/u/0/b/118220926206626726295/events/cgkg5tb5gt2r2b8e602lfbofddk",
    "lat":36.068467,
    "lng":4.765518
  },
  {
    "name":"IO14 Extended Brunei Darussalam",
    "link":"https://plus.google.com/u/0/b/105666592364623935060/events/cce50quei4f2kdjbvjog8l9q9t4?authkey=CP20usSgzsO5Iw",
    "lat":4.8853272,
    "lng":114.9318965
  },
  {
    "name":"I/O'14 Extended in Xi'an",
    "link":"https://plus.google.com/u/0/events/cmgb47n30f1nahv3dc5olp880ls?authkey=CKuJqdqM9uuiMw",
    "lat":34.2593804,
    "lng":108.9672088
  },
  {
    "name":"I/O Extend 2014 - Nanyang",
    "link":"https://plus.google.com/events/cj0ckp5d4mio3b5d0o31glgml6k",
    "lat":32.973585,
    "lng":112.549402
  },
  {
    "name":"GoogleI/O Extended in Shinshu",
    "link":"https://plus.google.com/events/ckjbt76hvapi4591cdqfl35kcj8?authkey=COfBz42eoZ-WvQE",
    "lat":36.1112594,
    "lng":137.9502427
  },
  {
    "name":"Google I/O Extended Suzhou",
    "link":"https://plus.google.com/events/c31sg5pfsbid3tefvccp4hbdun0",
    "lat":31.315798,
    "lng":120.739159
  },
  {
    "name":"Google I/O Extended - GDG Albuquerque",
    "link":"https://plus.google.com/events/c6afmr60js9olbnu7c1l73kfbpc",
    "lat":35.156702,
    "lng":-106.592514
  },
  {
    "name":"Peshawar Google i/o",
    "link":"https://plus.google.com/events/cs2k1pse1s8usddhm0i0j1uk8hk?authkey=CP-upozyj5reEQ",
    "lat":33.9959839,
    "lng":71.4821406
  },
  {
    "name":"Google IO Extended et les startups toulousaines",
    "link":"https://plus.google.com/b/117732835400777918591/events/c27al8o33ndo5v2e6uauc4ja3ms",
    "lat":43.609123,
    "lng":1.448057
  },
  {
    "name":"Google I/O'14 Extended - Hangzhou",
    "link":"https://plus.google.com/events/cmqmjtt8t6f8mgdar16eh4pubpo",
    "lat":30.2613905,
    "lng":120.1718902
  },
  {
    "name":"Google I/O Extended Bergen",
    "link":"https://plus.google.com/events/cne7sn6nq4plj7k2mm96okl3qcs",
    "lat":60.3960221,
    "lng":5.3257563
  },
  {
    "name":"I/O Extended Malmö",
    "link":"https://plus.google.com/events/ca2u88atnt40kiddi2ogag2kcqc",
    "lat":55.612424,
    "lng":12.999606
  },
  {
    "name":"IO Extended",
    "link":"https://plus.google.com/u/0/events/cr1cjm2v2vvvdrigniq7tdgvlcc",
    "lat":55.6826956,
    "lng":12.5801663
  },
  {
    "name":"Google I/O Extended Kisumu",
    "link":"https://plus.google.com/events/cvi6htvkjcvjjc2anl85kk81s6k",
    "lat":-0.0749729,
    "lng":34.7382407
  },
  {
    "name":"Epitech Paris Keynote Google Extended I/O",
    "link":"https://plus.google.com/events/cg4m6shapf5lf3a0ni2e9fdcaek",
    "lat":48.815495,
    "lng":2.363187
  },
  {
    "name":"Google IO in Picardie",
    "link":"https://plus.google.com/b/113891110741520781629/events/cpvsknj8otkmqf7jid93uc2692s",
    "lat":49.8389082,
    "lng":3.3017467
  },
  {
    "name":"I/O Entended GDG Abidjan 2014",
    "link":"https://plus.google.com/u/0/events/cshlme53k3ogiibes58dqqohj2g",
    "lat":5.336804,
    "lng":-4.005933
  },
  {
    "name":"Google I/O Extended @ Campus Party GDL",
    "link":"https://plus.google.com/events/ckovs2t45rep2dl3fels12uiq9s",
    "lat":20.654089,
    "lng":-103.391776
  },
  {
    "name":"Google I/O Extended Chomutov 2014",
    "link":"https://plus.google.com/u/0/b/106255915825440513922/events/c1nroadbi7tankijpv7r7l005bk",
    "lat":50.469558,
    "lng":13.4001311
  },
  {
    "name":"I/O extend Google",
    "link":"https://plus.google.com/u/0/events/cvins9u1hr55lc45t74e89fmlgo",
    "lat":48.6926041,
    "lng":6.1884515
  },
  {
    "name":"Google I/O Extended Douala",
    "link":"https://plus.google.com/events/crjgk170m1mgveuq7h7v2i06dik",
    "lat":4.0544184,
    "lng":9.6986907
  },
  {
    "name":"Google IO Extended Stockholm",
    "link":"https://plus.google.com/u/0/b/116734714431109169952/events/cvlhqm2ni726j6l6qjacavnhr1k?authkey=CIrX45Oar8biuwE",
    "lat":59.337917,
    "lng":18.057528
  },
  {
    "name":"Redefining Media",
    "link":"https://plus.google.com/events/c1msi6gj785alsbjvvv8r21qm8k?authkey=CJeBwfeJi_3kaA",
    "lat":40.8012472,
    "lng":-73.9485127
  },
  {
    "name":"Google I/O Extended Ann Arbor",
    "link":"https://plus.google.com/b/112215001458553713484/events/c9kqqtv3lm77lvsn0jrhl6278p4",
    "lat":42.2821127,
    "lng":-83.7498362
  },
  {
    "name":"GDG Hyderabad - Google I/O 2014 Extended Event",
    "link":"https://plus.google.com/events/cvbt9erubjdh9gpp0ajdimrmgr8?authkey=CObppO-G76GWbg",
    "lat":17.459007,
    "lng":78.37262
  },
  {
    "name":"Google I/O Extended UNNOBA",
    "link":"https://plus.google.com/u/0/events/cho3lof3938duhp2bfj01cv1k3c",
    "lat":-34.5860613,
    "lng":-60.9506197
  },
  {
    "name":"Google I/O Extended Austin",
    "link":"https://plus.google.com/u/0/b/117635509141852388558/events/cqeg0buuq12mous6hjkvbfbrc9o",
    "lat":30.386245,
    "lng":-97.736682
  },
  {
    "name":"Severodonetsk I/O'14 Extended",
    "link":"https://plus.google.com/u/0/b/115260333751535677595/events/chq26rju6bik0suhsvof90pcifc",
    "lat":48.9466445,
    "lng":38.481637
  },
  {
    "name":"Google I/O Extended Stuttgart",
    "link":"https://plus.google.com/events/clm2findt9sgkhlg01s05s3uc64",
    "lat":48.777103,
    "lng":9.235491
  },
  {
    "name":"Google I/O Extended GDG Lleida",
    "link":"https://plus.google.com/events/cbcu2gdd916975eutjub8cbvmlg",
    "lat":41.6082572,
    "lng":0.623035
  },
  {
    "name":"Google I/O Extended La Paz 2014",
    "link":"http://goo.gl/Wx3ou2",
    "lat":-16.521391,
    "lng":-68.112092
  },
  {
    "name":"Google I/O Extended 2014 高松会場",
    "link":"https://plus.google.com/u/0/events/c1ibq5of7cqci4nld18l9884g84",
    "lat":34.3385662,
    "lng":134.0529434
  },
  {
    "name":"Google I/O Extended Sri Lanka 2014",
    "link":"https://plus.google.com/u/0/events/c3gk2779u5aiov0o88bvts3t05c",
    "lat":6.9040467,
    "lng":79.865215
  },
  {
    "name":"I/O Extended 2014 | Joradn",
    "link":"https://plus.google.com/events/csbr371gg6innqde14evq7kofog?authkey=CLuh5O2igpjTdA",
    "lat":31.9533333,
    "lng":35.9091667
  },
  {
    "name":"Google I/O Extended Espoo",
    "link":"https://plus.google.com/events/clgbbfkju0mp7hvm1lg68l7ed64",
    "lat":60.181037,
    "lng":24.831891
  },
  {
    "name":"Google I/O Extended 2014 Berlin",
    "link":"https://plus.google.com/events/cm5f3ee6siep05tqlgir010ftos",
    "lat":52.512556,
    "lng":13.419736
  },
  {
    "name":"I/O Extended Event GDG Mwanza",
    "link":"https://plus.google.com/b/113901864922964546168/events/c8qoe80rk7e8s8oiu1l41bahaf4",
    "lat":-6.3728253,
    "lng":34.8924827
  },
  {
    "name":"Google I/O Extended Gulu",
    "link":"https://plus.google.com/u/0/b/109902375049302599424/events/cdb4lehhfl8fv9b9844adh9alq8",
    "lat":2.788288,
    "lng":32.316775
  },
  {
    "name":"Google I/O Extended Oslo",
    "link":"https://plus.google.com/events/ck4upucp6fpgu68331svqo9r2oo",
    "lat":59.92384,
    "lng":10.731749
  },
  {
    "name":"Google I/O'14 - Epitech Strasbourg",
    "link":"https://plus.google.com/b/108752928915285917183/events/c1nfhvvtupbemcfsccbt7rhqdn4",
    "lat":48.583537,
    "lng":7.749986
  },
  {
    "name":"Our first GIOE",
    "link":"https://plus.google.com/u/0/events/c9i93jdf65b3flredffmvfsmj0o",
    "lat":44.637189,
    "lng":22.650836
  },
  {
    "name":"Google I/O Extended Aalborg",
    "link":"https://plus.google.com/events/c0fmb8fi5g1kr7mbe53so6r1ohc",
    "lat":57.085997,
    "lng":9.959235
  },
  {
    "name":"Google I/O Extended - Jičín",
    "link":"https://plus.google.com/u/0/b/103955344850342432430/events/c675ol5h75qd89bdctifaooe628",
    "lat":50.437583,
    "lng":15.35257
  },
  {
    "name":"Google I/O Extended @ StartupHub Timisoara",
    "link":"https://plus.google.com/events/c1pm70guj1m5f6jgslg3855bb9c?authkey=CKTRocaUwdu2ZA",
    "lat":45.757463,
    "lng":21.221078
  },
  {
    "name":"EPITECH NICE",
    "link":"https://plus.google.com/events/ctj7339g21abfkd911qu4e6k144?authkey=CJnJoay9x4CX8gE",
    "lat":43.6957891,
    "lng":7.2701128
  },
  {
    "name":"Google I/O Extended",
    "link":"https://plus.google.com/events/c06c6hjhsevisdi5eqbbigjvlv4?hl=en\u0026authkey=CJmQhe-p_7u14QE",
    "lat":40.751989,
    "lng":-96.6431745
  },
  {
    "name":"Google I/O Extended Beijing",
    "link":"https://plus.google.com/events/ck96i614pnauis0tjeihk3ktppc",
    "lat":39.984,
    "lng":116.306783
  },
  {
    "name":"Google I/O Extended Cagayan de Oro 2014",
    "link":"https://plus.google.com/u/0/b/109777245615877849664/events/cj3fp7igqc0qjtf86h768jous1g",
    "lat":8.448736,
    "lng":124.622152
  },
  {
    "name":"I/O Extend 2014 - Lanzhou",
    "link":"https://plus.google.com/events/c65qerie7k01av5t4chlvdn695c",
    "lat":36.0431104,
    "lng":103.8540939
  },
  {
    "name":"I/O Extend 2014 - Lanzhou",
    "link":"https://plus.google.com/events/c65qerie7k01av5t4chlvdn695c",
    "lat":36.04777,
    "lng":103.858562
  },
  {
    "name":"IO Extended Nantes",
    "link":"https://plus.google.com/events/c3mt18k4cql0o156td62ogig32o?authkey=CJTStZGszJC7Mg",
    "lat":47.217208,
    "lng":-1.554048
  },
  {
    "name":"Google I/O Extended Rennes",
    "link":"https://plus.google.com/b/108867537766309352271/events/cig0fpqn60cr4jp4600mh3vlt30?authkey=CNmEhf-HwZCDwwE",
    "lat":48.103824,
    "lng":-1.688903
  },
  {
    "name":"Google I/O Extended | Bern",
    "link":"https://plus.google.com/events/cdtt9cecbbm8s2g8d8pb13v4k2s?authkey=CMS_xdP2_JmmxwE",
    "lat":46.9504118,
    "lng":7.4401151
  },
  {
    "name":"CULTURE AND CIVILIZATION ELEMENTS THROUGH VIRTUAL EDUCATION ",
    "link":"https://plus.google.com/events/cc5b509denl113dc04ar8fblcm8?authkey=CMSJ3sPznYnGbQ",
    "lat":44.1147356,
    "lng":24.9153675
  },
  {
    "name":"I/O Extended Tokyo",
    "link":"https://plus.google.com/u/0/events/cng0nvsdq3a3rpd7rlol9i49204",
    "lat":35.66052,
    "lng":139.729255
  },
  {
    "name":"Google I/O Extended Black Forest",
    "link":"https://plus.google.com/events/cneedldbob1umc58ahct99mdvjc?authkey=CMbQoovE9NWdCg",
    "lat":48.2198283,
    "lng":8.4976976
  },
  {
    "name":"Google IO Extended Amersfoort",
    "link":"https://plus.google.com/events/cpeht1rk5kaocp9oa0qmrpgjfd4?authkey=CJezktH20cCemgE",
    "lat":52.1588808,
    "lng":5.3802509
  },
  {
    "name":"Google I/O Extended Aachen",
    "link":"https://plus.google.com/u/0/b/114125193250240340259/events/cc6jl4pn8ggnscdka0egq1m4nuo",
    "lat":50.779433,
    "lng":6.058995
  },
  {
    "name":"Google I/O Extended Munich",
    "link":"https://plus.google.com/events/cbhbjpg6vm88d380e9mp8ml2nfg",
    "lat":48.153155,
    "lng":11.50763
  },
  {
    "name":"IO Extended Viewing Party",
    "link":"https://plus.google.com/u/0/b/114576537688641864561/events/ckmuke2jb77tbg0angk1emj0k6c?authkey=CJrLpaDx7NbcqAE",
    "lat":28.4949595,
    "lng":77.088869
  },
  {
    "name":"Google I/O Extended London @ Campus",
    "link":"https://plus.google.com/u/0/b/103583604759580854844/events/c0am25sk538v4eogq6umsf94jv8",
    "lat":51.522632,
    "lng":-0.085798
  },
  {
    "name":"Google I/O Saar",
    "link":"https://plus.google.com/events/cu0ejjdb5k5socefo1iie0mh910",
    "lat":49.278905,
    "lng":7.107183
  },
  {
    "name":"Google I/O Extended 2014 GDG SLAU",
    "link":"https://plus.google.com/b/104400328660167590151/events/cp1d6cgv2d3oant8j2tu99vn7oc",
    "lat":0.3016508,
    "lng":32.5615824
  },
  {
    "name":"Google I/O Extended 2014 at DIRECTV Headquarters",
    "link":"https://plus.google.com/events/cee419e87ch5sg3se9nl8l2lreg",
    "lat":33.9299352,
    "lng":-118.3848852
  },
  {
    "name":"Google I/O Extended 2014 Tucson",
    "link":"https://plus.google.com/b/107118157366278614352/events/cmrovhoaav3uvtnmkes9f211emg",
    "lat":32.223035,
    "lng":-110.970889
  },
  {
    "name":"Liv Google IO Extended",
    "link":"https://plus.google.com/events/cb45tqau08qo8ot4jkq4cq3i8v4?authkey=COH5tomW-IScFQ",
    "lat":-25.7444566,
    "lng":28.2350187
  },
  {
    "name":"Google I/O Extended 2014 @ Hilversum",
    "link":"https://plus.google.com/events/c2tdvgncvn65m155gl3c1g6rm08",
    "lat":52.23994,
    "lng":5.168678
  },
  {
    "name":"Google I/O Extended 2014 - GDG Lleida",
    "link":"https://plus.google.com/u/0/events/cbcu2gdd916975eutjub8cbvmlg",
    "lat":41.6081039,
    "lng":0.5892222
  },
  {
    "name":"RETRANSMISSION GOOGLE I/O EXTENDED",
    "link":"https://plus.google.com/events/ct37qaukjrun15ls5aap6pmip8o?authkey=CPPu2M7EicWiowE",
    "lat":44.8535891,
    "lng":-0.5749317
  },
  {
    "name":"Google I/O Extended Amman",
    "link":"https://plus.google.com/b/105734230312112352829/events/c5h62ahfhk7102asc37dsiavsf0",
    "lat":31.971953,
    "lng":35.833685
  },
  {
    "name":"Google I/O 2014 Extended Manila",
    "link":"https://plus.google.com/events/cdflp14uk4ofjp0bha614accrrc",
    "lat":14.5546007,
    "lng":121.0331609
  },
  {
    "name":"Lae PNG Experience I/O 2014",
    "link":"https://plus.google.com/events/cf94ei8736lcfmauu0erbpbf3sc?authkey=CIy5ifS5gPKmdQ",
    "lat":-6.669117,
    "lng":146.9972187
  },
  {
    "name":"Google I/O extended Poprad",
    "link":"https://plus.google.com/b/103280667737160014426/events/ctv880aub9cfj98uqn3s9r987ss",
    "lat":49.05651,
    "lng":20.296093
  },
  {
    "name":"Google I/O Extended '14 - Lyon",
    "link":"https://plus.google.com/events/c5g8p2ifih5etmd840a3kguut6o?authkey=CNyRw6nwh8juogE",
    "lat":45.7695899,
    "lng":4.8593046
  },
  {
    "name":"Google I/O extended Nyeri",
    "link":"https://plus.google.com/events/cdiq7556b8t8rurchklc7g6att4",
    "lat":0.15456,
    "lng":37.908326
  },
  {
    "name":"I/O EXTENDED MIAGE GI 2014",
    "link":"https://plus.google.com/u/0/events/c9t0g48lann6jmt0aasi16r19lk",
    "lat":5.3619935,
    "lng":-3.9927598
  },
  {
    "name":"I/O Extended Düsseldorf",
    "link":"https://plus.google.com/u/0/b/107373371386267684213/events/chgag52jrkofo50qrg4m3t8l2ns",
    "lat":51.205645,
    "lng":6.760646
  },
  {
    "name":" GDG Uyo Google I/O Extended",
    "link":"https://plus.google.com/events/cpr7nqjhbtril0ki2jhhhk8go9k",
    "lat":5.0163709,
    "lng":7.9302493
  },
  {
    "name":"First GIOE in Severin",
    "link":"https://plus.google.com/u/0/events/c3o2a39vu107veo685oontsseoo",
    "lat":44.636956,
    "lng":22.650836
  },
  {
    "name":"Zillow Lincoln Google I/O Extended Event",
    "link":"https://plus.google.com/u/0/events/ctu7k38jb4ldhsg7cvss1ce7578?authkey=CMnr9ZC7wsH5Jg",
    "lat":40.751989,
    "lng":-96.6431745
  },
  {
    "name":"Google I/O Extended Busitema 2014",
    "link":"https://plus.google.com/events/cg7d7ipmd0jbrqv3hlgjcgvii18",
    "lat":0.547058,
    "lng":34.020155
  },
  {
    "name":"GDG MBARARA I/O'14 EXTENDED",
    "link":"https://plus.google.com/b/110391140569788670287/events/cnmmqvnqroqpe7rbp5vpdj16tas?authkey=CMj3laGhtf-hSg",
    "lat":-0.608445,
    "lng":30.661778
  },
  {
    "name":"GDG BUK I/O 14 Extended",
    "link":"https://plus.google.com/b/101561674681942684865/events/clb2u3a3v510uvo4vlpf0u3cttc",
    "lat":11.972992,
    "lng":8.425537
  },
  {
    "name":"I/O Extended Bacolod",
    "link":"https://plus.google.com/events/cd5dd46dr5pvnpnme6sltqv6ees",
    "lat":10.678725,
    "lng":122.962444
  },
  {
    "name":"IO/Extended with GDG Rajkot",
    "link":"https://plus.google.com/events/ca7vifjb9vlrd7ib574g5jgkq6s",
    "lat":22.281557,
    "lng":70.76679
  },
  {
    "name":"Google I/O Extended Surat",
    "link":"https://plus.google.com/events/cinjdofvjnpjhg728mnpn9s6nvg",
    "lat":21.161378,
    "lng":72.785562
  },
  {
    "name":"I/O '14 Extended",
    "link":"https://plus.google.com/events/cibcebdibqohqsbisoj9ckc6pdc",
    "lat":11.0170887,
    "lng":76.9595532
  },
  {
    "name":"I/O Extended Oakdale",
    "link":"https://plus.google.com/events/c1f9g30mcpmpo1fvb09lk1u199c",
    "lat":37.764505,
    "lng":-120.85161
  },
  {
    "name":"Beer Sheva IO Extended",
    "link":"https://plus.google.com/b/115824198132464916191/events/cgvkfeemgckibah85elv945u9mo",
    "lat":31.263517,
    "lng":34.81154
  },
  {
    "name":"GDG Ekiti IO'14 Extended",
    "link":"https://plus.google.com/b/110463793540880663642/events/cqm9re9h6ifhv5t3a8vmda095a4",
    "lat":7.712224,
    "lng":5.255385
  },
  {
    "name":"Google I/O Extended Belgaum 2014",
    "link":"https://plus.google.com/b/114286035682716151642/events/cs0e54k9tpkr9iv4koqdaon7png",
    "lat":15.8667131,
    "lng":74.5084405
  },
  {
    "name":"Google I/O Extended Nairobi",
    "link":"https://plus.google.com/u/0/b/108023673559083336909/events/cklqfgdc2hgegrlgb1t7719ne0k",
    "lat":-1.331912,
    "lng":36.7807465
  },
  {
    "name":"Guillaume - EPITECH",
    "link":"https://plus.google.com/u/0/events/cem9r20i8psca9fldam69idva5c",
    "lat":50.6350985,
    "lng":3.0618208
  },
  {
    "name":"KEYNOTE GOOGLE I/O EXTENDED",
    "link":"https://plus.google.com/events/cru349ejkj6qut6ibu0jmsi06dc?authkey=CI-gytL74sLN1wE",
    "lat":43.3108973,
    "lng":5.369006
  },
  {
    "name":"Google I/O Epitech Lyon",
    "link":"https://plus.google.com/events/crnvmvorjshao80esiug62p0juk?authkey=CPGPn-jesbWHvQE",
    "lat":45.756961,
    "lng":4.856872
  },
  {
    "name":"I/O extend Google",
    "link":"https://plus.google.com/events/cphg3es49frtv7hfls4bqevpofo",
    "lat":48.6926041,
    "lng":6.1884515
  },
  {
    "name":"I/O'14 Extended",
    "link":"https://plus.google.com/u/0/b/117099251731858299644/events/cnl390t5rea5a8qb0le58243uc0",
    "lat":18.499416,
    "lng":73.817886
  },
  {
    "name":"Google I/O Extended Kuala Lumpur",
    "link":"https://plus.google.com/events/c42a9pfe93vb3kjq8sjfhkm7efc",
    "lat":3.1067565,
    "lng":101.6657365
  },
  {
    "name":"I/O Extended Lusaka - 2014",
    "link":"https://plus.google.com/events/cv6bt3i2n7nuump239qt0vdh0bk",
    "lat":-15.39181,
    "lng":28.32739
  },
  {
    "name":"GDG Kano IO EXTENDED 2014",
    "link":"https://plus.google.com/u/0/b/102360788478802698105/events/ctabu82ih3t52b5a9vnk308t2l0",
    "lat":11.9916085,
    "lng":8.532064
  },
  {
    "name":"Google I/O Extended 2014 @ Lahore",
    "link":"https://plus.google.com/events/c6m286peunu6i6b1bhjfjq8rq74",
    "lat":31.4796725,
    "lng":74.3231472
  },
  {
    "name":"I/O Extended",
    "link":"https://plus.google.com/b/112567231965124788407/events/coma2r12g5udplmtub641rhshak",
    "lat":23.188464,
    "lng":72.628422
  },
  {
    "name":"Google I/O Extended Monterrey",
    "link":"https://plus.google.com/events/c51n10iqgqma38va8ltevdlti6c?authkey=CNyiluXNwdPDfA",
    "lat":25.669996,
    "lng":-100.377815
  },
  {
    "name":"Google I/O Extended Isle of Man Edition",
    "link":"https://plus.google.com/events/cf56e8sr70qv0vb0r8qukvcvd9k",
    "lat":54.1526036,
    "lng":-4.4814803
  },
  {
    "name":"Google I/O Extended Santa Barbara @ Citrix",
    "link":"https://plus.google.com/events/clfia6okevtqfucsbjthgrb48k4",
    "lat":34.430318,
    "lng":-119.886823
  },
  {
    "name":"GDG Santa Fe I/O Extended 2014",
    "link":"https://plus.google.com/events/cvnlkpvja57u2lsa29v98dah38s",
    "lat":-31.6207752,
    "lng":-60.7012926
  },
  {
    "name":"Google I/O Extended 2014",
    "link":"https://plus.google.com/events/cpsmd3g3hf0s9ahje33llq5fh64",
    "lat":42.833023,
    "lng":74.6188732
  },
  {
    "name":"Google I/O Extended São Paulo 2014",
    "link":"https://plus.google.com/u/0/b/115765717673028641964/events/cpb2r51l7cj0p8lsspf6ucr8cm4",
    "lat":-23.586607,
    "lng":-46.681884
  },
  {
    "name":"google I/O Extended Event‏",
    "link":"https://plus.google.com/u/0/events/caf90cta5qrjj4s5l8t0jnn3j9c",
    "lat":32.3119265,
    "lng":35.026584
  },
  {
    "name":"I/O Extended Bogotá 2014",
    "link":"https://plus.google.com/events/c055jikpa38tkpmv58q4elma9b4",
    "lat":4.6516179,
    "lng":-74.0573795
  },
  {
    "name":"TGIFriday IO14",
    "link":"https://plus.google.com/events/cv6d670uu85t5cadohmb3ohe5mg?authkey=CNrovKuWkqn1WA",
    "lat":26.8002885,
    "lng":-80.2259905
  },
  {
    "name":"IO Extended Utah",
    "link":"https://plus.google.com/b/111917982940065392922/events/c6ti1gomfi7klucv7jkue0h59do",
    "lat":40.766112,
    "lng":-111.890576
  },
  {
    "name":"Google I/O Extended 2014: Birgunj",
    "link":"https://plus.google.com/events/cosgndhr8el6ti1f4hfa33b4plg",
    "lat":27.0251093,
    "lng":84.8832732
  },
  {
    "name":"Google I/O'14 Extended Baguio",
    "link":"https://plus.google.com/events/clm9c12k5n20osq77022q7bepus",
    "lat":16.3994753,
    "lng":120.5887752
  },
  {
    "name":"Google I/O Extended Hefei",
    "link":"https://plus.google.com/events/chjrf7v3lfuqa4mqj5op6u16qio",
    "lat":31.875331,
    "lng":117.2530741
  },
  {
    "name":"I/O Ext - KYIV!",
    "link":"https://plus.google.com/u/0/events/cn7d7l9731pp314mtjc01h0abo8",
    "lat":50.422641,
    "lng":30.505063
  },
  {
    "name":"Google I/O Extended 2014 DHBW Mosbach",
    "link":"https://plus.google.com/events/c6tcdqchuobc1ah2bjd745qqo34?authkey=CM_s5_GvoqKMIw",
    "lat":49.351596,
    "lng":9.148386
  },
  {
    "name":"Google Extended Aarhus",
    "link":"https://plus.google.com/events/c9gadr93ql5ogqe9lfbcqf7lmm8",
    "lat":56.1527586,
    "lng":10.1954023
  },
  {
    "name":"Google I/O Extended Grand Rapids",
    "link":"https://plus.google.com/u/0/events/c3pr5nrv8dr76pi4rtm957v3b0g",
    "lat":42.964455,
    "lng":-85.6803675
  },
  {
    "name":"Google I/O Extended Nagoya",
    "link":"https://plus.google.com/b/109355660646855759577/events/cri5fmlabnbpov5eplinlrics2c",
    "lat":35.170874,
    "lng":136.8840698
  },
  {
    "name":"Papaol",
    "link":"https://plus.google.com/u/0/b/106840051712296332154/events/cutt8881emqarv00rpk0smueggc",
    "lat":-9.4770181,
    "lng":147.1508922
  },
  {
    "name":"GDG Lafia Google I/O Extended 2014",
    "link":"https://plus.google.com/events/cqnldt817dkmqnc1k8g55avvlcg",
    "lat":8.5027067,
    "lng":8.5186529
  },
  {
    "name":"Google I/O Extended Fukuoka",
    "link":"https://plus.google.com/events/c83ac6s019buu2fo1guutk0ibdk",
    "lat":33.587623,
    "lng":130.3955094
  },
  {
    "name":"Google I/O Extended 2014",
    "link":"https://plus.google.com/b/105638061282002057162/events/c2fc1kvjm1cjqb7n600cj6un71o",
    "lat":42.028084,
    "lng":-93.648854
  },
  {
    "name":"GDG Jodhpur I/O 2014 Extended Night Out",
    "link":"https://plus.google.com/u/0/b/111014253228149858796/events/cnm2tv1mo1sefl3m8nlcgm0c0ss",
    "lat":26.200171,
    "lng":73.041138
  },
  {
    "name":"Google I/O GDG Sonargaon",
    "link":"https://plus.google.com/events/chst3bqeu4dm7648ji578ti99vc",
    "lat":23.750867,
    "lng":90.393153
  },
  {
    "name":"IO Extended - Lucknow",
    "link":"https://plus.google.com/events/co03tel17hqb9u9m6nj2hs78a4g",
    "lat":28.728001,
    "lng":77.468612
  },
  {
    "name":"Google I/O @ MarketLytics",
    "link":"https://plus.google.com/events/cst2apgb5535kfjaj1v3ugvcna0",
    "lat":24.8551267,
    "lng":67.0393219
  },
  {
    "name":"Google I/O Extended Cherkasy 2014",
    "link":"https://plus.google.com/u/0/events/c3ac361dv17mngl8v717n7ivvg4",
    "lat":49.4222464,
    "lng":32.1065591
  },
  {
    "name":"Google I/O Extended Cochabamba 2014",
    "link":"https://plus.google.com/events/c5h640an0soht6kojrn1jkapb30?authkey=CMH9q5Duh4yfuAE",
    "lat":-17.370924,
    "lng":-66.1365125
  },
  {
    "name":"IO Extended Brest",
    "link":"https://plus.google.com/events/ct772rc3fl1rssi0ftu3qpe61n8",
    "lat":48.391764,
    "lng":-4.488368
  },
  {
    "name":"Google IO Extended Calgary",
    "link":"https://plus.google.com/events/ck6i4uh957hid5eadudsisngr4g",
    "lat":50.9535525,
    "lng":-114.5718054
  },
  {
    "name":"IO Extended Guangzhou",
    "link":"https://plus.google.com/b/114920001331857622210/events/ctkks4huia6ev2sjoceui7m8ams",
    "lat":23.097275,
    "lng":113.32371
  },
  {
    "name":"IO Extended",
    "link":"https://plus.google.com/u/0/b/117099251731858299644/events/cnl390t5rea5a8qb0le58243uc0",
    "lat":18.499289,
    "lng":73.821873
  },
  {
    "name":"Google I/O Extended Budapest - 2014",
    "link":"https://plus.google.com/events/cuqcuuq87pt9ju368vvqlarqg8o",
    "lat":47.4735092,
    "lng":19.0592446
  },
  {
    "name":"Google I/O Extended Vienna",
    "link":"https://plus.google.com/events/ct8u10cehl94srfm4ieorgkaks0",
    "lat":48.192049,
    "lng":16.33598
  },
  {
    "name":"I/O '14 Extended Party in Zamboanga City, Philippines",
    "link":"https://plus.google.com/events/ckqqr0doh9v7ado4ttv3s12mlig",
    "lat":7.1643667,
    "lng":122.1452666
  },
  {
    "name":"I/O'14 extended La Rochelle",
    "link":"https://plus.google.com/b/108713945733365820430/events/cgs6efird298n2bnm5hq7g597t8",
    "lat":46.1615833,
    "lng":-1.2042517
  },
  {
    "name":"Google I/O Extended Oita",
    "link":"https://plus.google.com/events/c365p9lcq8i1n2c5485c8f1tge4",
    "lat":33.2359022,
    "lng":131.610994
  },
  {
    "name":"Google I/O Extended 2014 Surabaya",
    "link":"https://plus.google.com/events/chckl4urphmhba8i12633jmoa8s?authkey=CIfH14Oen7WH4gE",
    "lat":-7.291213,
    "lng":112.758822
  },
  {
    "name":"Google I/O Extended Constanta, 2014",
    "link":"https://plus.google.com/u/0/events/cbtjt7rjklj5fkgal9ie5tj3doo",
    "lat":44.174635,
    "lng":28.647473
  },
  {
    "name":"Google I/O Extended Akure 2014",
    "link":"https://plus.google.com/events/c8t5bajra2s7814f3s736a7oqvk",
    "lat":7.3033861,
    "lng":5.1374034
  },
  {
    "name":"Google I/O Extended Kigali ",
    "link":"https://plus.google.com/u/0/b/115773026353111253942/events/c8er8h6ir6brrke7mrqo0net6nc",
    "lat":-2.0307785,
    "lng":30.1995064
  },
  {
    "name":"GDGTenerife-Blitz IO Extended '14",
    "link":"https://plus.google.com/events/ch65agrg9de2t54elj9p55ures4",
    "lat":28.488548,
    "lng":-16.315501
  },
  {
    "name":"Google I/O Extended Ahmedabad 2014",
    "link":"https://plus.google.com/b/100135743108396056876/events/c43m5br61p9r2d7n44kq79rqu20",
    "lat":23.010092,
    "lng":72.50612
  },
  {
    "name":"Google I/O Extended : Punjab 2014",
    "link":"https://plus.google.com/u/0/b/114790565755036483829/events/ccfh5snanmibchmbrp1qjsl5h0s",
    "lat":30.974518,
    "lng":76.539227
  },
  {
    "name":"Extended I/O @GDG Hudson Valley",
    "link":"https://plus.google.com/u/0/b/116637480947982055865/events/ct29iujra2873b9gp5himv7ikf4",
    "lat":41.5037639,
    "lng":-73.967359
  },
  {
    "name":"Extended I/O @ GDG Hudson Valley",
    "link":"https://plus.google.com/u/0/b/116637480947982055865/events/ct29iujra2873b9gp5himv7ikf4",
    "lat":41.5037639,
    "lng":-73.967359
  },
  {
    "name":"Google I/O extended Las Palmas",
    "link":"https://plus.google.com/u/0/b/118027875298659982093/events/crrpt0hu9jge0nsf96ntvvvd4mk?authkey=CL-fmNrF18mEigE",
    "lat":28.1173607,
    "lng":-15.439617
  },
  {
    "name":"Google I/O Extended Kota Kinabalu 2014",
    "link":"https://plus.google.com/events/c0v95n2me2i4gq9ioaij0lur8vc",
    "lat":5.978757,
    "lng":116.0762535
  },
  {
    "name":"Google I/O Extended Lima 2014",
    "link":"https://plus.google.com/u/0/b/103607234084788626166/events/ctp2cb3ksvjvr4nmv8n0nf13heg?authkey=CPXzhbr368aVRA",
    "lat":-12.083803,
    "lng":-77.048441
  },
  {
    "name":"Google I/O",
    "link":"https://plus.google.com/events/c0o3rkutdr7pc3uggr697g3oavc?authkey=CN6a4eeLuZT9eQ",
    "lat":-29.8608494,
    "lng":31.0221817
  },
  {
    "name":"CULTURE AND CIVILIZATION ELEMENTS THROUGH VIRTUAL EDUCATION ",
    "link":"https://www.google.com/maps/place/Liceul+Tehnologic+Virgil+Madgearu/@44.1082548,24.9893069,15z/data=!4m2!3m1!1s0x0:0xe0a673c30587eaae",
    "lat":44.1082548,
    "lng":24.9893069
  },
  {
    "name":"Google I/O Extended Mbale",
    "link":"https://plus.google.com/events/cus3ts9l0rr2ntnd7dreo5i5f3c",
    "lat":1.070785,
    "lng":34.180917
  },
  {
    "name":"Google I/O Extended Hefei",
    "link":"https://plus.google.com/events/chjrf7v3lfuqa4mqj5op6u16qio",
    "lat":31.875331,
    "lng":117.2530741
  },
  {
    "name":"Google I/O Extended 2014-Urumqi",
    "link":"https://plus.google.com/events/cec09tfpot4agv0icv6ell2pvek",
    "lat":44.014903,
    "lng":87.3198421
  },
  {
    "name":"ZZUIO",
    "link":"https://plus.google.com/events/ctlfuopettide3714g824d1glp4?authkey=CJfe64HX3oKTKQ",
    "lat":34.817166,
    "lng":113.535921
  },
  {
    "name":"CULTURE AND CIVILIZATION ELEMENTS THROUGH VIRTUAL EDUCATION ",
    "link":"https://plus.google.com/events/cc5b509denl113dc04ar8fblcm8",
    "lat":44.1044098,
    "lng":24.9886608
  },
  {
    "name":"Google IO 2014 Extended - Manchester",
    "link":"https://plus.google.com/events/chr5p1iahi8jf6pmqcbf79dce0k",
    "lat":53.4822646,
    "lng":-2.233725
  },
  {
    "name":"Google I/O Extended Warszawa",
    "link":"https://plus.google.com/u/0/b/105909141177271768718/events/c7cqmn58u3tmjq168kh820b2luo",
    "lat":52.223724,
    "lng":20.994162
  },
  {
    "name":"I/O Entended I.T INCEPT 2014",
    "link":"https://plus.google.com/events/ciuteg1bm0f606r9evnb98h4fm8?authkey=CM7op7_S-qrlXg",
    "lat":5.405606,
    "lng":-3.99639
  },
  {
    "name":"Google IO Extended Karachi",
    "link":"https://plus.google.com/b/104623905407895992587/events/cne4cl8dq4qj7r2s13rem407or0",
    "lat":24.878489,
    "lng":67.064235
  },
  {
    "name":"I/O Extended 2014",
    "link":"https://plus.google.com/u/0/events/csens6co6ipc3jud6fbjgbcspf8",
    "lat":37.784446,
    "lng":-122.39598
  },
  {
    "name":"Google I/O Extended Brussels",
    "link":"https://plus.google.com/events/cautko5u5afmjpe8e3sil5rvi5s",
    "lat":50.839364,
    "lng":4.38095
  },
  {
    "name":"Google I/O-ext Zhuhai",
    "link":"https://plus.google.com/events/cvnhgonnkltqs4niu9vdr0b71is",
    "lat":22.364937,
    "lng":113.546047
  },
  {
    "name":"Google IO Extended Mila",
    "link":"https://plus.google.com/u/0/b/104040884350824481430/events/cmn1lcfu2t672eq489um1thggsg",
    "lat":36.4480263,
    "lng":6.2616638
  },
  {
    "name":"Google　I/O 2014 extended@Bar android",
    "link":"https://plus.google.com/events/cq09v1nuahpmg8uu9e7kk2lp230",
    "lat":35.66114,
    "lng":139.667483
  },
  {
    "name":"Google I/O Extended Blida 2014 ",
    "link":"https://plus.google.com/u/0/b/107630357199337939894/events/cv998ttiq9r8le3o4dgj1fc5eeg",
    "lat":36.503816,
    "lng":2.876355
  },
  {
    "name":"Google I/O'14 Extended ROMA",
    "link":"https://plus.google.com/events/cppjg0o8me956m8ha23hm7puiao",
    "lat":41.8991976,
    "lng":12.5028184
  },
  {
    "name":"Google I/O Extended Zhuhai",
    "link":"https://plus.google.com/events/cvnhgonnkltqs4niu9vdr0b71is",
    "lat":22.3683248,
    "lng":113.5477438
  },
  {
    "name":"Google I/O Extended New Orleans",
    "link":"https://plus.google.com/u/0/events/clm40i76a2oh889351sotnem80o?authkey=CKz-t7GsiKzQ9wE",
    "lat":29.955464,
    "lng":-90.184016
  },
  {
    "name":"Google I/O Extended 2014",
    "link":"https://plus.google.com/u/0/events/csrfi42uaugqoi5d1vi80ipc8a8",
    "lat":29.781969,
    "lng":-95.390051
  },
  {
    "name":"Google IO @ MozillaYVR",
    "link":"https://plus.google.com/events/c97o9gg9qh0hhsaen6v0i88g138?authkey=COikzOuLjtWg-gE",
    "lat":49.2824658,
    "lng":-123.1091908
  },
  {
    "name":"Google I/O Extended Vientiane 2014 Viewing Party",
    "link":"https://plus.google.com/events/cdreinnqrhba4n42fh5ers4vk4g",
    "lat":17.9423559,
    "lng":102.6236678
  },
  {
    "name":"Google I/O Extended Zhuhai",
    "link":"https://plus.google.com/events/cvnhgonnkltqs4niu9vdr0b71is",
    "lat":22.1614549,
    "lng":113.3919525
  },
  {
    "name":"Google Cloud Computing",
    "link":"https://plus.google.com/events/c2d3b7uc5225mj5ku43gdmtef08?authkey=CPqpra_9k_f35gE",
    "lat":44.3277668,
    "lng":23.8090338
  },
  {
    "name":"Bang",
    "link":"https://plus.google.com/u/0/events/cdifhnoecle4qi66pnl8vk7ofm8",
    "lat":56.1718091,
    "lng":10.188734
  },
  {
    "name":"I/O'14 Extends Istanbul",
    "link":"https://plus.google.com/b/100514812580249787371/events/c949hg05d23licofb2e73vtqj40",
    "lat":41.103435,
    "lng":29.023893
  },
  {
    "name":"Google I/O Extended 2014 - Trento",
    "link":"https://plus.google.com/b/111161676776647373558/events/c7ch918m9dbvp3blggerv2reang",
    "lat":46.066973,
    "lng":11.150324
  },
  {
    "name":"Google I/O Extended 2014 Málaga",
    "link":"https://plus.google.com/events/cs17n9e887cgt319l8tkkr43glk",
    "lat":36.715438,
    "lng":-4.476875
  },
  {
    "name":"Google I/O Extended Campania",
    "link":"https://plus.google.com/b/118330453895116582842/events/cbpj6f6dpoqmon998hh78tnomkc",
    "lat":41.068435,
    "lng":14.3263131
  },
  {
    "name":"GDG Mallorca IO Extended",
    "link":"https://plus.google.com/events/cvpa0i7ccp69uo303f66k0vlc6k",
    "lat":39.5697331,
    "lng":2.6550761
  },
  {
    "name":"DEVINTAS 2014",
    "link":"https://plus.google.com/u/0/b/110072242410958082966/110072242410958082966/posts",
    "lat":5.12826,
    "lng":7.362492
  },
  {
    "name":"Google IO Extended Nouakchott",
    "link":"https://plus.google.com/u/0/b/101418494167802969097/events/cn3st1djdhftg1l1e5ibdfdkvi0",
    "lat":18.088903,
    "lng":-15.969114
  },
  {
    "name":"GDG LNMIIT Jaipur IO Extended",
    "link":"https://plus.google.com/b/111359547963135248341/events/c2vggq0eitjfpt9bi8f9va818mc",
    "lat":26.9335332,
    "lng":75.9228217
  },
  {
    "name":"Agema Google I/O",
    "link":"https://plus.google.com/events/cs70ba14lqg9441akbojt6j5ur4",
    "lat":45.4874881,
    "lng":9.2168523
  },
  {
    "name":"Google I/O Extended Craiova",
    "link":"https://plus.google.com/events/c2d3b7uc5225mj5ku43gdmtef08?authkey=CPqpra_9k_f35gE",
    "lat":44.3277668,
    "lng":23.8090338
  },
  {
    "name":"IO Week Johannesburg",
    "link":"https://plus.google.com/events/ca9bptq9f8ec7uv9nfu0l7fnmlo",
    "lat":-26.18547,
    "lng":28.01902
  },
  {
    "name":"Google I/O Extended Goma",
    "link":"https://plus.google.com/u/0/events/cc00kde73vg6nn52tauaqkta2j0",
    "lat":-1.6638126,
    "lng":29.2231718
  },
  {
    "name":"Google I/O Extended with GDG Gandhinagar",
    "link":"https://plus.google.com/u/0/b/109189940762716110863/events/cadd5qc1db0tqu1r2p3chp66hks",
    "lat":23.2207097,
    "lng":72.6458501
  },
  {
    "name":"I/O Extend 2014 - Xiamen",
    "link":"https://plus.google.com/u/0/b/110967416369300099369/events/c1pdckkhs7m462559j0u1a4rd8k",
    "lat":24.43896,
    "lng":118.097687
  },
  {
    "name":"I/O Extend 2014 - Xiamen",
    "link":"https://plus.google.com/u/0/b/110967416369300099369/events/c1pdckkhs7m462559j0u1a4rd8k",
    "lat":24.43944,
    "lng":118.090169
  },
  {
    "name":"I/O Extend 2014 - Xiamen",
    "link":"https://plus.google.com/u/0/b/110967416369300099369/events/c6d79bgl8qm6qmv14l30e89eung",
    "lat":24.4411205,
    "lng":118.094308
  },
  {
    "name":"Google I/O Extended Lviv 2014",
    "link":"https://plus.google.com/events/cfba8ic67g6vqer23tafdd3ps8c",
    "lat":49.842743,
    "lng":23.998857
  },
  {
    "name":"GDG Google I/O Extended Nebrodi",
    "link":"https://plus.google.com/u/0/events/cjjs2skpeskagfp69b342pt4s64",
    "lat":38.06933,
    "lng":14.63251
  },
  {
    "name":"Google I/O 2014 Extended - GDG Northwest Arkansas",
    "link":"https://plus.google.com/u/0/b/109596331895051634773/events/c4qaaif1r2ft51ontvlb7i4je1g",
    "lat":36.4654711,
    "lng":-93.0904043
  },
  {
    "name":"I/O Extended Apec",
    "link":"https://plus.google.com/b/101585293573808603734/events/cl7u78lqqfa6jrkjttefee2aej4",
    "lat":18.4735654,
    "lng":-69.9136884
  },
  {
    "name":"Gooogle I/O Extended Shanghai",
    "link":"https://plus.google.com/events/c7l7fg85rld9vqkc6rpoer88eik",
    "lat":31.3043176,
    "lng":121.5106804
  },
  {
    "name":"GDG Trento - Google I/O Extended 2014",
    "link":"https://plus.google.com/events/c7ch918m9dbvp3blggerv2reang",
    "lat":46.066973,
    "lng":11.150324
  },
  {
    "name":"Google I/O Extended Warwick University",
    "link":"https://plus.google.com/events/ci3jj922uchl6910hlfp73rb3pc?authkey=CMS9u8aymsvhmQE",
    "lat":52.379252,
    "lng":-1.56147
  },
  {
    "name":"Google I/O Extended Omsk 2014",
    "link":"https://plus.google.com/b/102520175692033125056/events/c6k37v2ijqo2hfvjqkn3vt9tef4",
    "lat":54.985876,
    "lng":73.356139
  },
  {
    "name":"Google I/O '14 Extended Shorouk",
    "link":"https://plus.google.com/b/114929582735909291621/events/cg4v09huidk7j7fjn8bqbt2jvcc",
    "lat":30.04437,
    "lng":31.238868
  },
  {
    "name":"Google IOExt",
    "link":"https://plus.google.com/u/0/b/104942670949404025825/events/ccqbfemm87vujftsc6ubmn2fa08?authkey=CLvg357cqLPuSg",
    "lat":43.4977032,
    "lng":13.5332603
  },
  {
    "name":"DC I/Ox +Code Lab",
    "link":"https://plus.google.com/events/c6615jmli5c96o0r86uvrsie6gs?authkey=CLHkltj2luOh9QE",
    "lat":38.895529,
    "lng":-77.069866
  },
  {
    "name":"Houston Google I/O Extended 2014",
    "link":"https://plus.google.com/u/0/events/csrfi42uaugqoi5d1vi80ipc8a8",
    "lat":29.781969,
    "lng":-95.390051
  },
  {
    "name":"Google I/0 2014 Live ",
    "link":"https://plus.google.com/events/cou20muhvlmis1n1bvsmlqbdqls",
    "lat":37.0625,
    "lng":-95.677068
  },
  {
    "name":"Google I/O Extended Chengdu",
    "link":"https://plus.google.com/u/0/events/ct3iqpn6jnh8g5tq0e6molrhsp8",
    "lat":30.62508,
    "lng":104.070482
  },
  {
    "name":"Google I/O Extended : GDG Baroda",
    "link":"https://plus.google.com/events/c4kurhicuv4ljlf4ae4tefv8qlk",
    "lat":22.3221027,
    "lng":73.1730862
  },
  {
    "name":"Google I/O Extended Jihlava",
    "link":"https://plus.google.com/u/0/b/114298804346759031330/events/cluhf98hoeu68fpvcd51n29gqo0",
    "lat":49.398794,
    "lng":15.582889
  },
  {
    "name":"Google I/O Extended Wrocław 2014",
    "link":"https://plus.google.com/u/0/events/c3625lg6a8bfbkbcqve5jskt7uk",
    "lat":51.108827,
    "lng":17.056964
  },
  {
    "name":"Google IO Extended Vilnius",
    "link":"https://plus.google.com/events/cvn81ke3ec83hf450ernttfjrsc",
    "lat":54.675645,
    "lng":25.286662
  },
  {
    "name":"I/O Extended Angers",
    "link":"https://plus.google.com/u/0/b/103818738212754953988/events/c67fp94eslnho91ua03uo7vg9uk?authkey=CMCB0eOw5Ln1ggE",
    "lat":47.472041,
    "lng":-0.551269
  },
  {
    "name":"Google I/O Extended Zhangjiakou",
    "link":"https://plus.google.com/events/cbuerceoi2g8uo3r7cqo7h7gmgs?hl=zh-CN",
    "lat":40.767308,
    "lng":114.8956567
  },
  {
    "name":"Workshop Android Wear",
    "link":"https://plus.google.com/events/cu0n4hi231am0fm29d2e9fnajc4",
    "lat":39.479146,
    "lng":-0.355013
  },
  {
    "name":"Hackathón Android Wear",
    "link":"https://plus.google.com/events/celtsjsso2tem6sjro5lo6d0640",
    "lat":39.479146,
    "lng":-0.355013
  },
  {
    "name":"Google I/O Extended Valencia",
    "link":"https://plus.google.com/events/cdcc686tdao6qk03aqhjedp8ens",
    "lat":39.476275,
    "lng":-0.349575
  },
  {
    "name":"Google I/O Extended Omsk 2014",
    "link":"https://plus.google.com/events/c6k37v2ijqo2hfvjqkn3vt9tef4",
    "lat":54.976822,
    "lng":73.391559
  },
  {
    "name":"Google I/O Extended@Bar Android",
    "link":"https://plus.google.com/events/cq09v1nuahpmg8uu9e7kk2lp230",
    "lat":35.66114,
    "lng":139.667483
  },
  {
    "name":"I/O Extended Quindío Armenia 2014",
    "link":"https://plus.google.com/u/0/b/113306632199215309356/events/ci2fuese094oaof2sp5bu2mklh8",
    "lat":4.560073,
    "lng":-75.6510936
  },
  {
    "name":"Google I/O Extended 2014 @ Palermo",
    "link":"https://plus.google.com/u/0/b/111445091579754468671/events/cn22jff001jakq4q6ep24f2ql6g",
    "lat":38.1246199,
    "lng":13.3620733
  },
  {
    "name":"Google IO Extended Mallorca",
    "link":"https://plus.google.com/events/c86psve8m32frv04k8uipkda25o",
    "lat":39.5697331,
    "lng":2.6550761
  },
  {
    "name":"GIO14 Torino",
    "link":"https://plus.google.com/events/c6cmbn3267071aoa8m52hbmc0g4",
    "lat":45.0652239,
    "lng":7.6567757
  },
  {
    "name":"Dallas Google I/O Extended Dallas, presented by Bottle Rocket",
    "link":"https://plus.google.com/events/cnllfm3uubaj1lihli6i16t5k8s",
    "lat":32.9443077,
    "lng":-96.8199287
  },
  {
    "name":"Google I/O Extended ChiangMai",
    "link":"https://plus.google.com/events/cei9qfk59i97k9h5gr0jnsbqibk",
    "lat":18.793553,
    "lng":98.972353
  },
  {
    "name":"Google I/O Extended Ile-Ife 2014",
    "link":"https://plus.google.com/events/cdn2iqpfnsm0hvomjchivsulmm4",
    "lat":7.517722,
    "lng":4.526348
  },
  {
    "name":"Google I/O 2014 Extended Bari",
    "link":"https://plus.google.com/u/0/b/106251105155216710234/events/cq3l8rk62m2nmhrgbm67l23t900",
    "lat":41.1251638,
    "lng":16.8604558
  },
  {
    "name":"GDG Dublin I/O Extended",
    "link":"https://plus.google.com/u/0/b/100633195306202271076/events/cmfeftgsdrhl4312affs85j5cik",
    "lat":53.340028,
    "lng":-6.237037
  },
  {
    "name":"I/O Extended Denver",
    "link":"https://plus.google.com/events/cd8fnn7bpfvaic2snag7cp6v8ng?authkey=CLnh79HPiJSdhwE",
    "lat":39.7511217,
    "lng":-105.001768
  },
  {
    "name":"Google I/O Extended Minsk 2014",
    "link":"https://plus.google.com/events/cso3nlo9po374q13hus7k6rq7jc",
    "lat":53.9056986,
    "lng":27.5842864
  },
  {
    "name":"Google IO Extended",
    "link":"https://plus.google.com/events/cptv5494vlpjojlru13qohen8vk",
    "lat":53.553975,
    "lng":9.98621
  },
  {
    "name":"Google I/O Extended 2014 with GDG Brescia",
    "link":"https://plus.google.com/u/0/b/104091916976470214422/events/crtkv8gce872d47krhgp5lgerjc?authkey=CM3r_bimwYCaMw",
    "lat":45.524477,
    "lng":10.210245
  },
  {
    "name":"Matson",
    "link":"https://plus.google.com/events/c745iqlnqa2cgus9ucnavolgl6g",
    "lat":44.760262,
    "lng":-85.6195392
  },
  {
    "name":"Google I/O Extended",
    "link":"https://plus.google.com/u/0/b/112454638433901035373/events/cikfp5b7t1okscnkl4gmia67d4g",
    "lat":37.065392,
    "lng":14.25041
  },
  {
    "name":"Google I/O Extended Catania",
    "link":"https://plus.google.com/b/118102220008611585984",
    "lat":37.523033,
    "lng":15.084784
  },
  {
    "name":"Extended I/O at 1871",
    "link":"https://plus.google.com/events/c9amkv48e2q7qnclch8us457dg4",
    "lat":41.8882954,
    "lng":-87.6361666
  },
  {
    "name":"Google I/O Extended POA",
    "link":"https://plus.google.com/events/clbqbqiek9g23b3p1p9a6n04u1s",
    "lat":-30.042774,
    "lng":-51.184887
  },
  {
    "name":"Google I/O Extended Brasília por \"CrazyTech Guys\"",
    "link":"https://plus.google.com/events/c6hf4tq94316969phsunqlaoeoo?authkey=CMrPj_SHrueMSA",
    "lat":-15.8300382,
    "lng":-47.879647
  },
  {
    "name":"Google IO Extended 2014 Sousse",
    "link":"https://plus.google.com/u/0/b/101281981512157769860/events/co334ilu2te4tutpeduuovinsgc",
    "lat":35.8293445,
    "lng":10.6200863
  },
  {
    "name":"I/O Extended Meknes",
    "link":"https://plus.google.com/u/0/b/114136480637909581373/events/c6onikmnilonj5jof2coqenv42g",
    "lat":33.893841,
    "lng":-5.54993
  },
  {
    "name":"I/O Extended @ Ragusa Digitale",
    "link":"https://plus.google.com/b/102841847902334834735/events/cva9anvgbfvei2fk4n9pr4bnocs",
    "lat":36.9186836,
    "lng":14.710288
  },
  {
    "name":"GDG I/O 2014 Extended Aracaju",
    "link":"https://plus.google.com/events/ctuoc3ioaaq9rsma0uf1jofpv4c",
    "lat":-10.918519,
    "lng":-37.071011
  },
  {
    "name":"Google I/O Extended Cagliari",
    "link":"https://plus.google.com/events/cic2e3c1lsgpftp1nkn6g0es114?authkey=CK2Fts7UyIjOzgE",
    "lat":39.226858,
    "lng":9.071178
  },
  {
    "name":"GDG Camerino: Google I/O Extended",
    "link":"https://plus.google.com/b/118137135858143918205/events/cubu1qnepddelgmmik643r36bqo",
    "lat":43.136944,
    "lng":13.069889
  },
  {
    "name":"GDG Kolkata I/O Extended",
    "link":"https://plus.google.com/events/c9ein7o9mp895qkec4htrrpdkm8",
    "lat":22.569383,
    "lng":88.410099
  },
  {
    "name":"Google I/O'14 Extended",
    "link":"https://plus.google.com/events/cirudd3a1qimv07onordvhundno?authkey=CLek_7e4v9O7EA",
    "lat":18.579455,
    "lng":73.737307
  },
  {
    "name":"Google I/O Extended with GDG UNN",
    "link":"https://plus.google.com/events/clbuasrc5013u7vir9m1ssl2jn0",
    "lat":6.86763,
    "lng":7.408535
  },
  {
    "name":"Google I/O Extended Łódź",
    "link":"https://plus.google.com/u/0/b/113753715740482925228/events/cciv3sh8eampf7dtsi8tmc9aon0",
    "lat":51.7538789,
    "lng":19.4555171
  },
  {
    "name":"I/O Extended Bremen",
    "link":"https://plus.google.com/u/0/b/112431439725681167608/events/cdge0sgp464i9hfub0khkn5et30",
    "lat":53.072936,
    "lng":8.808349
  },
  {
    "name":"Google I/O Extended 2014 Friuli Venezia Giulia \u0026 Veneto",
    "link":"https://plus.google.com/events/cvdqibalqcq3abti1g4difrd198",
    "lat":45.948047,
    "lng":12.656501
  },
  {
    "name":"Google I/O Extended Sofia",
    "link":"https://plus.google.com/b/103744570226888926347/events/cqc1aiusr3bogenqvposk1lm4uo",
    "lat":42.680282,
    "lng":23.325269
  },
  {
    "name":"Google IO Extended - Videon Central",
    "link":"https://plus.google.com/events/c2dkec3bh57h74smta9gcm31qn0",
    "lat":40.7985339,
    "lng":-77.9052554
  },
  {
    "name":"Google/IO Oujda",
    "link":"https://plus.google.com/events/c2ha9t2gn9s3eecuot6b1otecco",
    "lat":34.6845705,
    "lng":-1.9074781
  },
  {
    "name":"Google I/O Extended Taipei",
    "link":"https://plus.google.com/events/csedd4n9a0tkntnfgilnh9s2qqo?authkey=CNHXw-T_y7an-wE",
    "lat":25.020813,
    "lng":121.531244
  },
  {
    "name":"Google IO Extended with Android Wear Hackathon",
    "link":"https://plus.google.com/events/cbv40bqvkvvtbne1pu9mkmpj900",
    "lat":40.251843,
    "lng":-111.649318
  },
  {
    "name":"Round Rock Texas",
    "link":"https://plus.google.com/events/cbsl759sallp3tetce0ivpd8dug?hl=en",
    "lat":30.4840367,
    "lng":-97.6859723
  },
  {
    "name":"IO // NC",
    "link":"https://plus.google.com/events/c6jbdr70u475na9do7dneg6hijo",
    "lat":36.2888135,
    "lng":-76.994713
  },
  {
    "name":"Miami Android GDG Google I/O",
    "link":"https://plus.google.com/events/cnjg0jnqv8p7ifadqshiupa9cqc?authkey=CL6MoOPWy62y3gE",
    "lat":25.784154,
    "lng":-80.190593
  },
  {
    "name":"Pre-I/O Google Glass Hackathon",
    "link":"https://plus.google.com/events/cblf7rpl6igdgrv02p1hpil6t2k",
    "lat":37.787667,
    "lng":-122.396733
  },
  {
    "name":"DevNights",
    "link":"https://plus.google.com/events/ckedjpap400dm7tbjd40mr7iri0?authkey=CMHcj87o4aWpKQ",
    "lat":25.145095,
    "lng":55.224931
  },
  {
    "name":"I/O Extended - Highlights",
    "link":"https://plus.google.com/b/110441223852820157926/events/cplfk0hcq4558tmiodhc8aci6g0",
    "lat":8.499733,
    "lng":76.9244767
  },
  {
    "name":"Google I/O Extended Santiago 2014",
    "link":"https://plus.google.com/u/0/events/cd0fr3cokceull4h4lbf8fn9apo",
    "lat":-33.4348296,
    "lng":-70.6355095
  },
  {
    "name":"Google I/O Extended Santo Domingo @ITLA",
    "link":"https://plus.google.com/events/cbkk4nfpoff8tkrv1653tj9bke8",
    "lat":18.451074,
    "lng":-69.662687
  },
  {
    "name":"Google I/O Extended Santo Domingo @Coworking.do",
    "link":"https://plus.google.com/events/cni3slqlgp5km6c9ea2tthjuai8",
    "lat":18.452606,
    "lng":-69.960486
  },
  {
    "name":"Google I/O Extended Santo Domingo @Politécnico Nuestra Señora del Carmen",
    "link":"https://plus.google.com/b/101585293573808603734/events/caqh1aqhi21g04jindo9ea0vt4g",
    "lat":18.509874,
    "lng":-69.898037
  },
  {
    "name":"GDGKraków",
    "link":"https://plus.google.com/b/107562802227561437057/events/cudt77edinpgsjrnlfh2rpvft58",
    "lat":50.0489135,
    "lng":19.9627037
  },
  {
    "name":"I/O Extended Atlanta",
    "link":"https://plus.google.com/b/116177506899373607491/events/ct5f00bn1328i07p0jio2ia38uc",
    "lat":33.737379,
    "lng":-84.410229
  },
  {
    "name":"Google I/O Extended Poznań",
    "link":"https://plus.google.com/b/110191013153077917985/events/cvul8mlli8sol9q00n9i3459v74",
    "lat":52.403883,
    "lng":16.949487
  },
  {
    "name":"Google I/O",
    "link":"https://plus.google.com/u/1/b/103634831911213383878/events/c162moq7hoh0aa0md7b3a3q46to",
    "lat":20.353893,
    "lng":85.819816
  },
  {
    "name":"Google I/O extended 2014 La Rioja",
    "link":"http://plus.google.com/events/c3s6gicabuu6rtj9hqol2hrmnp0",
    "lat":42.4658602,
    "lng":-2.4490806
  },
  {
    "name":"Google I/O Extended III - Wiesbaden",
    "link":"https://plus.google.com/events/cjdj9gc7lusalracck5bj097kqg",
    "lat":50.0981884,
    "lng":8.2158208
  },
  {
    "name":"Google I/O Extended Nashville 2014",
    "link":"https://plus.google.com/events/c19fs8p5uq35dt78jaukotogbqc",
    "lat":36.030686,
    "lng":-86.776002
  },
  {
    "name":"Google I/O @ Equal Experts",
    "link":"https://plus.google.com/events/c2u077l945dklmsh70ldb02g7jg",
    "lat":18.544659,
    "lng":73.911327
  },
  {
    "name":"Google I/O Extended Kharkiv 2014",
    "link":"https://plus.google.com/u/0/events/c3397jhu6hf2j2rdcfp7due4ehk",
    "lat":50.026557,
    "lng":36.219337
  },
  {
    "name":"Google IO Extended Rotterdam",
    "link":"https://plus.google.com/events/cb18ken97m99lja8n8b05egtpnk",
    "lat":51.9172127,
    "lng":4.4840455
  },
  {
    "name":"I/O Extended Bremen",
    "link":"https://plus.google.com/u/0/b/112431439725681167608/events/cdge0sgp464i9hfub0khkn5et30",
    "lat":53.072936,
    "lng":8.808349
  },
  {
    "name":"Google I/O Extended",
    "link":"https://plus.google.com/events/ccabvh00omt8nghc1oc23p0i8ss?authkey=CImo26DWwc-71AE",
    "lat":53.432726,
    "lng":14.544546
  },
  {
    "name":"Google I/O Extended Salamanca",
    "link":"https://plus.google.com/u/0/b/107931642576280918674/events/cjlm6pl5v0mvfvtcodfb6kpfvpo",
    "lat":40.9603884,
    "lng":-5.6706945
  },
  {
    "name":"GDG Sudbury - I/O Extended",
    "link":"https://plus.google.com/events/cc8i5ppr87bjm13dmrhval5f7sg",
    "lat":46.502407,
    "lng":-80.986504
  },
  {
    "name":"Google I/O Extended Kochi",
    "link":"https://plus.google.com/events/cj7tk8m60jjqhkvd9736185b5nk?authkey=CNuCntnx8bmnAQ",
    "lat":10.01017,
    "lng":76.3655
  },
  {
    "name":"Google I/O",
    "link":"https://plus.google.com/u/1/events/c162moq7hoh0aa0md7b3a3q46to",
    "lat":20.35541,
    "lng":85.815325
  },
  {
    "name":"Google I/O Extended for Designers, Budapest, Hungary 2014",
    "link":"https://plus.google.com/events/cu0fhbirdc2lds9je2p8iad4bic",
    "lat":47.4852056,
    "lng":19.0647222
  },
  {
    "name":"Google I/O Extends Istanbul",
    "link":"https://plus.google.com/events/c949hg05d23licofb2e73vtqj40",
    "lat":41.0793985,
    "lng":29.010881
  },
  {
    "name":"Google I/O Extended Stockholm",
    "link":"https://plus.google.com/events/cfvfbgkjhbbq0e7ji6t8do8c05g",
    "lat":59.346076,
    "lng":18.0396356
  },
  {
    "name":"Google I/O Extended Almeria",
    "link":"https://plus.google.com/u/0/b/100779332357161488372/events/c5u4oudccp5k50r6376aqaqds0g",
    "lat":36.8291896,
    "lng":-2.4049355
  },
  {
    "name":"Google I/O Extended Ostrava",
    "link":"https://plus.google.com/events/ck1ib565fubgkeiifol4ln3p724",
    "lat":49.8271023,
    "lng":18.2624559
  },
  {
    "name":"Google I/O Extended Yaounde",
    "link":"https://plus.google.com/events/c6ldo0h4kvpj2jsbl09mpsdgr04",
    "lat":3.850878,
    "lng":11.499036
  },
  {
    "name":"Kaunas Mobile: Google I/O 2014 Extended",
    "link":"https://plus.google.com/events/cb200p14lhi17g9pks3qgv0caj8",
    "lat":54.9034276,
    "lng":23.9605107
  },
  {
    "name":"I/O Extended - GDG Jaraguá do Sul",
    "link":"https://plus.google.com/events/c3bpr6rrbc7jl5drth9g2tniglg",
    "lat":-26.466762,
    "lng":-49.113934
  },
  {
    "name":"Google I/0 2014",
    "link":"https://plus.google.com/u/0/events/cbge334a4jpfhbdlnudsv1ildm8",
    "lat":57.780273,
    "lng":14.17938
  },
  {
    "name":"Google I/O'14 Extended",
    "link":"https://plus.google.com/u/0/events/cirudd3a1qimv07onordvhundno?authkey=CLek_7e4v9O7EA",
    "lat":18.579455,
    "lng":73.737307
  },
  {
    "name":"Google I/O Extended al WCAP Bologna",
    "link":"https://plus.google.com/events/ct5ku2k2iem5s155iorel26j6u8",
    "lat":44.4964401,
    "lng":11.3459112
  },
  {
    "name":"Google I/O Extended GDG Hampton Roads",
    "link":"https://plus.google.com/b/113573239350627723932/events/cr769lfrsfv4hq0rmpsa1ibkhqo",
    "lat":36.847535,
    "lng":-76.29128
  },
  {
    "name":"GDG ANkara I/O Extended",
    "link":"https://plus.google.com/b/114568591151316164517/events/c0n1klmpnqrki9n4tjpounb1eg8",
    "lat":39.921854,
    "lng":32.799187
  },
  {
    "name":"I/O Extended Southern Idaho",
    "link":"https://plus.google.com/u/0/events/cg51afspihug1hv7ihuseo3bho0?cfem=1\u0026authkey=CPru04_497fQcw",
    "lat":42.571868,
    "lng":-114.452437
  },
  {
    "name":"Google I/O Extended Rhein-Main 2014",
    "link":"https://plus.google.com/b/100306385846086409727/events/c8skrpernk3pn600jh24vlnbgmo",
    "lat":50.109347,
    "lng":8.66903
  },
  {
    "name":"Google I/O Livestream form El Cowork",
    "link":"https://plus.google.com/b/108588524023852595620/events/c6bo68o52bden8ij2bpjte1u2no",
    "lat":25.646729,
    "lng":-100.323591
  },
  {
    "name":"Google I/O 2014 Extended - Bingham University",
    "link":"https://plus.google.com/u/0/b/117679563240292641304/events/cno1k7enfmu3kvalv10t8cp0dmo",
    "lat":8.957914,
    "lng":7.699131
  },
  {
    "name":"Google I/O Extended Kuala Lumpur",
    "link":"https://plus.google.com/events/c2b36kt7j71bcastc7eu5ngecmc",
    "lat":3.2050921,
    "lng":101.6474842
  },
  {
    "name":"Google I/O Extended London @ Campus",
    "link":"https://plus.google.com/u/0/b/103583604759580854844/events/c0am25sk538v4eogq6umsf94jv8",
    "lat":51.522632,
    "lng":-0.085798
  },
  {
    "name":"Google I/O Extended 2014",
    "link":"http://gdgchennai.com/io2014/",
    "lat":13.088287,
    "lng":80.200468
  },
  {
    "name":"google io extended 2014 FPUNA",
    "link":"https://plus.google.com/u/0/events/ceg5los7beei7cdpluhrka8gedg",
    "lat":-25.336298,
    "lng":-57.521809
  },
  {
    "name":"GDG DC IOx",
    "link":"http://www.meetup.com/gdg-dc/events/188204802/",
    "lat":38.895529,
    "lng":-77.069866
  },
  {
    "name":"Google I/O Extended - Kathmandu 2014",
    "link":"https://plus.google.com/events/c1pmkq26f457u23mp90k7i37ed4",
    "lat":27.7089603,
    "lng":85.3261328
  },
  {
    "name":"Google I/O Extended Xuzhou",
    "link":"https://plus.google.com/events/cgvn5itqcovoj0vhqtp1lals9nk",
    "lat":34.336465,
    "lng":117.148607
  },
  {
    "name":"Google I/O extended 2014 Voronezh",
    "link":"https://plus.google.com/events/cih62j3ellncst0enf3u4e8ke9o",
    "lat":51.6541701,
    "lng":39.1932795
  },
  {
    "name":"Google I/O Extended at Grid Dynamics",
    "link":"https://plus.google.com/events/char4si8ra1r9d2t66cgbes9c1o",
    "lat":49.9916541,
    "lng":36.2804766
  },
  {
    "name":"I/O Extended Athens - UGA",
    "link":"https://plus.google.com/events/c1gj1bblqv215p4atj038uou37g",
    "lat":33.9588195,
    "lng":-83.3656794
  },
  {
    "name":"I/O Extended Lowe Interamerica",
    "link":"https://plus.google.com/events/c1qmtdfqiqev04f02f0obt807tg?authkey=CKjQxdKzt8PwBg",
    "lat":18.4685262,
    "lng":-69.9356957
  },
  {
    "name":"Google I/O Extended Vitória",
    "link":"https://plus.google.com/events/c65hs882lp108hubel1hnijirp4",
    "lat":-20.2931956,
    "lng":-40.3064569
  },
  {
    "name":"I/O Extend/MobileLab@FEUP",
    "link":"https://plus.google.com/events/cfkffe5fofrq3fkgvmkjo9u9gls",
    "lat":41.1716895,
    "lng":-8.6077983
  },
  {
    "name":"google io extended 2014 FPUNA",
    "link":"https://plus.google.com/u/0/events/ceg5los7beei7cdpluhrka8gedg",
    "lat":-25.335784,
    "lng":-57.521821
  },
  {
    "name":"IO Extended Zürich",
    "link":"https://plus.google.com/events/c46vesd2qi4f2c7oeoc1qhitl3k",
    "lat":47.3655381,
    "lng":8.5253308
  },
  {
    "name":"IO Extended - Lucknow",
    "link":"https://plus.google.com/events/co03tel17hqb9u9m6nj2hs78a4g",
    "lat":26.887298,
    "lng":81.059074
  },
  {
    "name":"Google I/O 2014: Montclair State University Takeover!",
    "link":"https://plus.google.com/u/0/b/114176644944100969729/events/cvc4olseajdmbtnkrg7dh9ac37g?authkey=CKruydrqqPyN5AE",
    "lat":40.86208,
    "lng":-74.198584
  },
  {
    "name":"Google I/O Extended Olomouc",
    "link":"https://plus.google.com/u/0/events/c8akjgm2218ndaoai716qnjpmas",
    "lat":49.5914395,
    "lng":17.2634518
  },
  {
    "name":"IO Extended Kuwait 2014",
    "link":"https://plus.google.com/events/cs1g5a99a7klv6j8n7n8qvo3hkg",
    "lat":29.274092,
    "lng":48.052452
  },
  {
    "name":"Google I/O Extended UWS Wonderama Lab",
    "link":"https://plus.google.com/events/cn2656nf8s9n4eeut948j1ljjqc",
    "lat":-33.7679693,
    "lng":150.7291871
  },
  {
    "name":"Google I/O Extended@Pangyo",
    "link":"https://plus.google.com/events/cksbas7gocvg22972dshrg1ll40",
    "lat":37.3973021,
    "lng":127.122246
  },
  {
    "name":"Google Developer Group IO Extended Cagliari",
    "link":"https://plus.google.com/u/1/b/117782484864607288527/events/c3l1sbajsqf2t1djra69h80a04c",
    "lat":39.2143712,
    "lng":9.1080631
  },
  {
    "name":"Google I/O Extended in Korea University x Sejong",
    "link":"https://plus.google.com/events/cad27u18co1oue3hl35oehshv3o",
    "lat":36.611057,
    "lng":127.286798
  },
  {
    "name":"#io14extended HSV",
    "link":"https://plus.google.com/u/0/events/coo6nq5rpflidj14k71usbhnkl4",
    "lat":34.7014286,
    "lng":-86.6597495
  },
  {
    "name":"Google I/O Extended Córdoba",
    "link":"https://plus.google.com/events/cg49h54g89l2b8s1igmatfa5df8?authkey=CKTV1q7cxeOONg",
    "lat":37.887737,
    "lng":-4.784564
  },
  {
    "name":"google io 2014 extended FPUNA",
    "link":"https://plus.google.com/events/ceg5los7beei7cdpluhrka8gedg",
    "lat":-25.335881,
    "lng":-57.521821
  },
  {
    "name":"Google I/O Extended Keighley @STAR Centre LCC",
    "link":"https://plus.google.com/events/cbfsg0kil7n2h7630qtq13q7a40",
    "lat":53.868262,
    "lng":-1.901289
  },
  {
    "name":"Google I/O Extended Livestream at Big Nerd Ranch HQ",
    "link":"https://plus.google.com/u/0/b/113534704509596161677/events/c6qdfr2025a3daaspndol1tqdc0",
    "lat":33.76061,
    "lng":-84.322238
  },
  {
    "name":"Google IO @ DI",
    "link":"https://plus.google.com/events/cs80p5cucm7n1upghf6j2ue641k",
    "lat":55.7592784,
    "lng":37.6104444
  },
  {
    "name":"I/O Extended Dhaka 2014",
    "link":"https://plus.google.com/b/105616021694889364243/events/cibarech6pejofasetrkcd2h7ps",
    "lat":23.8166982,
    "lng":90.3314521
  },
  {
    "name":"Info Support Google IO",
    "link":"https://plus.google.com/events/ct2iv2tcr33tmeun3sodebrpu4c",
    "lat":52.053574,
    "lng":5.573655
  },
  {
    "name":"I/O Extended Boulder",
    "link":"https://plus.google.com/u/1/b/110545238773247324753/events/ckptmdk08tq5ohq34pq7d2tptnc",
    "lat":40.02142,
    "lng":-105.261261
  },
  {
    "name":"Google I/O Extended SapientNitro",
    "link":"https://plus.google.com/communities/114772417095614222837",
    "lat":25.728368,
    "lng":-80.2406
  },
  {
    "name":"Google IO Extended João Pessoa 2014",
    "link":"https://plus.google.com/u/1/b/107166165426891613168/events/c1qgcfk7r6moe7tbfd4043lrr30",
    "lat":-7.115539,
    "lng":-34.855296
  },
  {
    "name":"Google I/O plus IDC",
    "link":"https://plus.google.com/events/c4dugq4ju7pdkui369v8bho5lqo",
    "lat":37.510349,
    "lng":127.061046
  },
  {
    "name":"Google I/O Extended Lagos",
    "link":"https://plus.google.com/events/cghfjenbrvr1jelk0g1l09jkboo",
    "lat":6.504321,
    "lng":3.377936
  },
  {
    "name":"Google I/O Extended Muñoz",
    "link":"https://plus.google.com/events/cvecaso85nfcmv45fps6o6nbgh8",
    "lat":15.736842,
    "lng":120.933977
  },
  {
    "name":"Google I/O Extended by GDG Sfax",
    "link":"https://plus.google.com/b/110277621604181263838/events/c86p06egs42s83dfh5r3c24lmug",
    "lat":34.8342892,
    "lng":10.7519463
  },
  {
    "name":"GDG Cheonan\u0026Asan I/O Extended \u0026 Idea Hackathon",
    "link":"https://plus.google.com/events/c0pssu3vhi4iiooqn3htukt4mj8",
    "lat":36.8266817,
    "lng":127.1310315
  },
  {
    "name":"MINDBODY hosts I/O Extended San Luis Obispo",
    "link":"https://plus.google.com/events/c8lann2o7vg4r8b0gmdet4e606g?authkey=CM_ouZat1uaokwE",
    "lat":35.25926,
    "lng":-120.674847
  },
  {
    "name":"Official IO Keynote",
    "link":"https://plus.google.com/events/c6pec8ltin33olpgmq4lviuhh88?authkey=CIW5__XKyN2MUg",
    "lat":-37.912988,
    "lng":144.7656968
  },
  {
    "name":"Google I/O Extended Minna",
    "link":"https://plus.google.com/events/ct22uma3hhpn0t7ahrvs1df28j0",
    "lat":9.2675532,
    "lng":7.0679598
  },
  {
    "name":"Google I/O`14 Extended Event",
    "link":"https://plus.google.com/events/cs82130cl56k627s1jurpi5a3dc?authkey=CLHQwq2Y1dO24QE",
    "lat":4.90432,
    "lng":6.923908
  },
  {
    "name":"Google I/O Live at Basecamp Peshawar",
    "link":"https://plus.google.com/events/ch6rpbevfeilfu16hqjnqrm13p8",
    "lat":34.00184,
    "lng":71.46806
  },
  {
    "name":"Devguru I/O Extended Event",
    "link":"https://plus.google.com/events/c3g3069asrl0p2565jm0qibnmpc?authkey=COaWqvLxltb4jwE",
    "lat":37.478683,
    "lng":126.881592
  },
  {
    "name":"Google I/O Extended Live in Seoul",
    "link":"https://plus.google.com/u/0/events/cr5dbuiq577rl5d96lm54qphgqk",
    "lat":37.4954172,
    "lng":127.0388462
  },
  {
    "name":"I/O Extended UCU",
    "link":"https://plus.google.com/events/chgtt1lcc9itjsogp9n4mhf49b0",
    "lat":0.3549532,
    "lng":32.7405989
  },
  {
    "name":"Google I/O Extended at Grid Dynamics St. Petersburg",
    "link":"https://plus.google.com/u/0/events/cri5o5sclir56av2o7o5qg6juqk",
    "lat":59.9174455,
    "lng":30.3250575
  },
  {
    "name":"I/O Extended by Mezzomedia",
    "link":"https://plus.google.com/events/c393u67tovdu7sotktp8v4bttk0?authkey=CKminL7ljp2nhAE",
    "lat":37.382976,
    "lng":127.121461
  },
  {
    "name":"Keynote",
    "link":"https://plus.google.com/b/115824198132464916191/events/cgvkfeemgckibah85elv945u9mo",
    "lat":31.262975,
    "lng":34.8126683
  },
  {
    "name":"Google I/O Extended Dnipropetrovs'k 2014",
    "link":"https://plus.google.com/u/0/events/ctldimgc7pdc9stbr4itijplb2c",
    "lat":48.4630531,
    "lng":35.0546262
  },
  {
    "name":"Google I/O Extended Vigo",
    "link":"https://plus.google.com/events/cocn2rb9eefp5ug2008rrvl2k7k",
    "lat":42.23652,
    "lng":-8.712181
  },
  {
    "name":"Google I/O Extended - Vale do Paraíba",
    "link":"https://plus.google.com/events/cetj3v2pec6687loh1a2gdfnooc?authkey=CITMgJDZ_933RQ",
    "lat":-23.2075356,
    "lng":-45.898274
  },
  {
    "name":"Google I/O Extended, BlinkMobile",
    "link":"https://plus.google.com/events/cr6d4da01ji480c9el13ltrs9k8",
    "lat":-33.427497,
    "lng":151.342826
  },
  {
    "name":"Google I/O Extended - GDG Juliaca",
    "link":"https://plus.google.com/events/cjrkupp9jgbnqka453an76bs7hg",
    "lat":-15.497522,
    "lng":-70.132497
  },
  {
    "name":"Google I/O Extended - GBG Juliaca",
    "link":"https://plus.google.com/events/ctj7svf51mnr1eobm8s9haug2tg",
    "lat":-15.497522,
    "lng":-70.132497
  },
  {
    "name":"Google I/O Extended 2014 Seoul",
    "link":"https://plus.google.com/events/cd2od9ff2cp8hvsn6qg0k7cqcms",
    "lat":37.4954172,
    "lng":127.0388462
  },
  {
    "name":"Google I/O 2014",
    "link":"https://plus.google.com/app/basic/events/cgjqk9hbcto94qcvsb8g4np43i0?cbp=gmx6n1nm05vv\u0026sview=2\u0026cid=5\u0026soc-app=115\u0026soc-platform=1",
    "lat":56.140889,
    "lng":47.213834
  },
  {
    "name":"GDG Sydney Google IO 2014 Extended",
    "link":"https://plus.google.com/b/107322171137758703849/events/c27719m689d72ddm6l3doarq7bo",
    "lat":-33.880488,
    "lng":151.200363
  },
  {
    "name":"Google I/0 Extended",
    "link":"https://plus.google.com/u/0/events/cp8agai6qo2ondfrfmk8bg6ntd0?cfem=1\u0026authkey=CNnlqcWK_6-EdQ",
    "lat":-1.3094504,
    "lng":36.8190265
  },
  {
    "name":"I/O 14 ",
    "link":"https://plus.google.com/events/ciqsu9fjgms46drgaim92rrfvb8?authkey=CMOQ09ndq6mIcA",
    "lat":37.7749245,
    "lng":-122.4537483
  },
  {
    "name":"Google I/O Extended Newcastle",
    "link":"https://plus.google.com/events/cfeo8bi2ud48q7802g1pvrdfhn0",
    "lat":54.97289,
    "lng":-1.60858
  },
  {
    "name":"Google I/O Extended - Ghana",
    "link":"https://plus.google.com/u/0/b/117620641470438104052/events/c1t2n6e204064rvlbuk303rbg9o",
    "lat":5.555509,
    "lng":-0.2108399
  },
  {
    "name":"Tarragona Google I/O Extended",
    "link":"https://plus.google.com/u/0/b/110881000795710392242/events/crnv3fse5d423sbqv7gr242tcvk",
    "lat":41.120052,
    "lng":1.244061
  },
  {
    "name":"Google I/O Extended à Québec",
    "link":"https://plus.google.com/u/0/events/csia35hfrvijfp4r391hleucco8",
    "lat":46.78198,
    "lng":-71.274814
  },
  {
    "name":"Google IO Extended Indianapolis 2014",
    "link":"https://plus.google.com/events/cv53f07cltpk39ht6cc7s73gmpk",
    "lat":39.961101,
    "lng":-86.015482
  },
  {
    "name":"Grand Circus Google I/O Conference Live Stream",
    "link":"https://plus.google.com/events/c1p7hh8uqo7pa96pi47s15u5dl8?hl=en",
    "lat":42.3356798,
    "lng":-83.0526019
  },
  {
    "name":"Google I/O Extended, Washington DC",
    "link":"https://plus.google.com/events/cjig8omeqoe11c06a62sukirn88",
    "lat":38.898439,
    "lng":-77.010113
  },
  {
    "name":"Google I/O'14 Extended - Rajkot",
    "link":"https://plus.google.com/u/0/events/c49lokmmalfija2n70k79cbjt4s?authkey=CM7i9cyhsYangAE",
    "lat":22.296566,
    "lng":70.796886
  },
  {
    "name":"Google I/O 2014 at Peakfijn",
    "link":"https://plus.google.com/events/cngq05kgqpl6g20kii0rg78jogg",
    "lat":52.370793,
    "lng":4.883063
  },
  {
    "name":"Google I/O Extended 2014 Amsterdam",
    "link":"https://plus.google.com/events/c6e3tahh4o3tsog5an25bpnd6bo",
    "lat":52.337815,
    "lng":4.872608
  },
  {
    "name":"Google I/O Extended Odessa 2014",
    "link":"https://plus.google.com/events/cdt57opjbd7ik012ob0rhnbah20",
    "lat":46.4824833,
    "lng":30.7450815
  },
  {
    "name":"Google I/O Extended Kupferwerk",
    "link":"https://plus.google.com/events/c9279r2eu8e0jtcmkliar24i6vg?authkey=COiHyNjrt8zZcA",
    "lat":49.0164805,
    "lng":12.1215829
  },
  {
    "name":"Aptitude Preston",
    "link":"https://plus.google.com/events/ce6t3fk2gmga498ii3v04qksahc",
    "lat":53.7672104,
    "lng":-2.7122489
  },
  {
    "name":"Google I/O Extended Yola",
    "link":"https://plus.google.com/u/0/events/ce0t5r0v8nipua1inugc4otnras",
    "lat":9.191132,
    "lng":12.499691
  },
  {
    "name":"Google I/O 2014 Extended",
    "link":"https://plus.google.com/events/cvipt8o9f6la64p4h0an0gf41vk",
    "lat":44.646765,
    "lng":-63.574016
  },
  {
    "name":"Google I/O Extended Macedonia",
    "link":"https://plus.google.com/events/cv191ifk82qbscn140rcpgq6b2k",
    "lat":42.0007399,
    "lng":21.3984737
  },
  {
    "name":"Noob2Ninja",
    "link":"https://plus.google.com/b/105817272144201631703/events/c6kpom6rue2vu1i00qhfg3f7bm8",
    "lat":44.521978,
    "lng":-70.455029
  },
  {
    "name":"Google I/O Albany",
    "link":"https://plus.google.com/events/c45o7gigjgtm46cmcrisfcgvu88",
    "lat":42.685574,
    "lng":-73.853219
  },
  {
    "name":"Google I/O Extended GDG Piura 2014",
    "link":"https://plus.google.com/u/0/b/110871378704297111344/events/ct9r738igr5pa19vvapdajqvtp8?authkey=COes-tn51aT4bw",
    "lat":-5.173517,
    "lng":-80.63849
  },
  {
    "name":"Google IO Extended Korea Student",
    "link":"https://plus.google.com/events/ceopl0i6b76tm465jrd84730lgo",
    "lat":37.5651,
    "lng":126.98955
  },
  {
    "name":"Google I/O Extended 2014 Berlin",
    "link":"https://plus.google.com/events/cm5f3ee6siep05tqlgir010ftos",
    "lat":52.51297,
    "lng":13.420202
  },
  {
    "name":"Google I/O Extended Trójmiasto 2014",
    "link":"https://plus.google.com/events/clm719tksqqppumlcgidpbedm90",
    "lat":54.494594,
    "lng":18.538111
  },
  {
    "name":"Google I/O 2014 Extended",
    "link":"https://plus.google.com/events/cqg7o5cpoo7u4cu61vs6sah7pss?authkey=COW7ntLVqszmjgE",
    "lat":39.9189592,
    "lng":116.5240414
  },
  {
    "name":"Google IO'14 Extended Tianjin",
    "link":"https://plus.google.com/b/105969102740437964990/events/cmlo63if13rfedlklppm063ujhk",
    "lat":39.0429318,
    "lng":117.7282248
  },
  {
    "name":"Google I/O Extended Saratov",
    "link":"https://plus.google.com/events/c3i87p5h0lh5pidlrdhn7tek12c",
    "lat":51.535102,
    "lng":46.010464
  },
  {
    "name":"Google I/O 2014 Extended",
    "link":"https://plus.google.com/events/c966fie3tn8e0d89pnb359prulo?authkey=CMOcj8uK35axtwE",
    "lat":52.5075419,
    "lng":13.4261419
  },
  {
    "name":"Google I/O 2014 Extended @Incheon",
    "link":"https://plus.google.com/events/cg9qhp94sssmrib9e23u05vq73g",
    "lat":37.4493149,
    "lng":126.6993215
  },
  {
    "name":"Google I/O'14 Extended Rajkot",
    "link":"https://plus.google.com/u/0/events/c49lokmmalfija2n70k79cbjt4s?authkey=CM7i9cyhsYangAE",
    "lat":22.296566,
    "lng":70.796886
  },
  {
    "name":"Google I/O Extended - Hong Kong",
    "link":"https://plus.google.com/b/101989816978489369807/events/chn6flrujqui46dtk6s93lknur4",
    "lat":22.3117679,
    "lng":114.2215106
  },
  {
    "name":"Google I/O Extended Nashville 2014",
    "link":"https://plus.google.com/events/c19fs8p5uq35dt78jaukotogbqc",
    "lat":36.030686,
    "lng":-86.776002
  },
  {
    "name":"Tempe Watch Party",
    "link":"https://plus.google.com/b/100063761164380989466/events/cjmgqno52c0nep0bf1nc6bq8eko",
    "lat":33.428696,
    "lng":-111.942971
  },
  {
    "name":"Google I/O Extended 2014 Vijayawada",
    "link":"https://plus.google.com/events/clvjm4fue83lm4m74v79ouiqa14?authkey=CI6ToO_LpMqnYw",
    "lat":16.375388,
    "lng":80.528565
  },
  {
    "name":"Google I/O Extended Yogyakarta",
    "link":"https://plus.google.com/events/cnn7l726mlddnu27lbfj596qkg4",
    "lat":-7.7800085,
    "lng":110.3438361
  },
  {
    "name":"Google I/O Extended 2014 Barletta",
    "link":"https://plus.google.com/b/104987241945588038892/events/c6q42apslcokkrlmlpdd1d5dmd0",
    "lat":41.3187739,
    "lng":16.2705469
  },
  {
    "name":"Android and cloud",
    "link":"https://plus.google.com/u/0/events/ckmuke2jb77tbg0angk1emj0k6c",
    "lat":28.4947623,
    "lng":77.0892846
  },
  {
    "name":"Google I/O Albany",
    "link":"https://plus.google.com/u/2/events/c45o7gigjgtm46cmcrisfcgvu88",
    "lat":42.6858304,
    "lng":-73.8535405
  },
  {
    "name":"Google I/O Extended Ahmedabad",
    "link":"https://plus.google.com/events/c6ldc1n467s3aqmh8fh0rok499s",
    "lat":23.066222,
    "lng":72.531804
  },
  {
    "name":"Google i/o extended - Settat",
    "link":"https://plus.google.com/u/0/events/c6esqluq2qaq3l6jqrl06tfkup0",
    "lat":33.030908,
    "lng":-7.616505
  },
  {
    "name":"IO Extended Campinas",
    "link":"https://plus.google.com/events/c2c8c98jlk1ttrqkd6itt0jln2o",
    "lat":-22.813705,
    "lng":-47.0640494
  },
  {
    "name":"Google I/O Extended Viewing Party (\u0026 Coffee and Code)",
    "link":"https://plus.google.com/events/cttt61jr07mndqg3071bmioe6fc?authkey=CObqvrTx3sSdDg",
    "lat":33.4154808,
    "lng":-111.8355988
  },
  {
    "name":"Casual Stream",
    "link":"https://plus.google.com/events/cgsa8g67m4vunepj0dlopqo9hos?authkey=CMeD1vmFlZW_nAE",
    "lat":44.2978501,
    "lng":23.7928943
  },
  {
    "name":"Google I/O Extended George Town",
    "link":"https://plus.google.com/events/c9966nq10abju1eo71uqioi9mh4",
    "lat":5.330923,
    "lng":100.298619
  },
  {
    "name":"Google IO Extended 2014 Hradec Králové",
    "link":"https://plus.google.com/events/c2gvrclsekg7oq5cp24d3v5hkqo",
    "lat":50.2096428,
    "lng":15.7610698
  },
  {
    "name":"SOFTVISION Google I/O Extended 2014",
    "link":"https://plus.google.com/u/0/events/cgevr2k71ejoh522o81v121mm00",
    "lat":46.7611599,
    "lng":23.590709
  },
  {
    "name":"Google I/O Extended 2014 Vinnytsya",
    "link":"https://plus.google.com/u/0/events/chlk08teujpls62n17onumh7v58",
    "lat":49.232901,
    "lng":28.471782
  },
  {
    "name":"Google I/O Extended Indy",
    "link":"https://plus.google.com/events/cetvegio0gs6dmoin2hjo9f61tc",
    "lat":39.848809,
    "lng":-86.141656
  },
  {
    "name":"Google I/O Extended Kozhikode 2014 ",
    "link":"https://plus.google.com/u/0/b/114055418793204110473/events/csqmfi87cdurh0a5s0a8c22gi24",
    "lat":11.263774,
    "lng":75.7370041
  },
  {
    "name":"Google I/O Extended Antwerp",
    "link":"https://plus.google.com/events/ck1hfl081q6d5crpjn0slqj5208?authkey=COrDwdvg4KuOyQE",
    "lat":51.218869,
    "lng":4.408415
  },
  {
    "name":"Google IO Extended ",
    "link":"https://plus.google.com/u/0/b/111717853261864215468/events/cu7nhgqel6tqu8anu96o2420v8g",
    "lat":20.348704,
    "lng":85.820757
  },
  {
    "name":"I/O Extended Tivat",
    "link":"https://plus.google.com/u/0/events/c0dvt0um9eiopvs1kqqrsonhnkc",
    "lat":42.4318452,
    "lng":18.7041056
  },
  {
    "name":"msu IO",
    "link":"https://plus.google.com/events/c5tmejo9sk8i4ov83v1qsekunjo",
    "lat":48.245531,
    "lng":-101.3021502
  },
  {
    "name":"Google I/O-14 Extended at Cogniance Office",
    "link":"https://plus.google.com/events/c5ptuha0066o068i85l4tig6bac",
    "lat":50.416037,
    "lng":30.518419
  },
  {
    "name":"I/O Keynote Watch",
    "link":"https://plus.google.com/u/0/events/c8bfdqb17a61ti8s3pok88ck46k",
    "lat":42.9901113,
    "lng":-71.4633041
  },
  {
    "name":"Google I/O Extended Tbilisi",
    "link":"https://plus.google.com/u/0/events/c54o4m8pdu0k5atn7notbg2pqac",
    "lat":41.797418,
    "lng":44.7739704
  },
  {
    "name":"Google I/O Extended Extravaganza",
    "link":"https://plus.google.com/events/cd8p2st8ibjhbtejitr52vhci08?authkey=CM-B2YDs3pOQZQ",
    "lat":30.4432286,
    "lng":-84.2971004
  },
  {
    "name":"Orion",
    "link":"https://plus.google.com/events/c7l7fg85rld9vqkc6rpoer88eik",
    "lat":31.2975236,
    "lng":121.511187
  },
  {
    "name":"Google I/O Extended Belo Horizonte",
    "link":"https://plus.google.com/events/cporqubkc19i1lj21lg6pitrspo",
    "lat":-19.929427,
    "lng":-43.9407262
  },
  {
    "name":"I/O Extended in Jeju Island",
    "link":"https://plus.google.com/u/0/events/clijessa3kc4pmjs3aulkcb8kvk",
    "lat":33.45043,
    "lng":126.570673
  },
  {
    "name":"GoogleIO",
    "link":"https://plus.google.com/events/cn4qprm9rtohd5ln8jt7nh9htcg?authkey=CIPg8PPe8vWJyQE",
    "lat":23.1416948,
    "lng":120.2169399
  },
  {
    "name":"Google I/O Extended Auckland!",
    "link":"https://plus.google.com/events/c9gl3e4b1t27sjdo2gvfsqjslb8?authkey=CO3hi7yWtMjxxQE",
    "lat":-36.853244,
    "lng":174.765774
  },
  {
    "name":"Google I/O Extended Cluj / Live Streaming ",
    "link":"https://plus.google.com/u/2/events/c4a1sol4qbull1aecqh8pktp588",
    "lat":46.7708245,
    "lng":23.5161227
  },
  {
    "name":"Penzance Workbox Google I/O Streaming",
    "link":"https://plus.google.com/events/ch3dh22pq8sdsrqno39dj0ih19o",
    "lat":50.117259,
    "lng":-5.537151
  },
  {
    "name":"Google I/O Extended Patras",
    "link":"https://plus.google.com/b/117699057477746360720/events/cqrj8dbcfs0lgjdptrkvllvlj48",
    "lat":38.2553967,
    "lng":21.7452171
  },
  {
    "name":"Google I/O Extended Viewing Party - Pretoria, South Africa",
    "link":"https://plus.google.com/b/117599647232533838312/events/c2994i56rrrtlpqsmng6m1mm610",
    "lat":-25.7486332,
    "lng":28.2689892
  },
  {
    "name":"I/O Extended",
    "link":"https://plus.google.com/events/c94lmk3lms3jivng1880jjor92o",
    "lat":18.599338,
    "lng":73.765632
  },
  {
    "name":"Google I/O'14 Extended @Symbiosis Knowledge Village",
    "link":"https://plus.google.com/events/cnnqqnovpnipck42h4b6acvgnto",
    "lat":18.536786,
    "lng":73.731308
  },
  {
    "name":"SOFTVISION Google I/O Extended 2014",
    "link":"https://plus.google.com/events/cgevr2k71ejoh522o81v121mm00",
    "lat":47.6590043,
    "lng":23.5718898
  },
  {
    "name":"GDG CD I/O Extend Event",
    "link":"https://plus.google.com/events/c5jm5pq714v6vs76t4014rviaoc?authkey=CNG0yLPnkoONIg",
    "lat":30.6674378,
    "lng":104.0514669
  },
  {
    "name":"Google IO Extended - Abu Dhabi",
    "link":"https://plus.google.com/b/102594920945075640331/events/cf9r79pda2bbidkakf6fo83l1sk",
    "lat":24.4301484,
    "lng":54.4569701
  },
  {
    "name":"SpiderBoost Google I/O'14 Event",
    "link":"https://plus.google.com/events/cnhj9rjv4gmblp2k51ddj90hal0?authkey=CMXvm_jVuYuZWQ",
    "lat":25.7727498,
    "lng":-80.1933634
  },
  {
    "name":"Hasbro IT Patio",
    "link":"https://plus.google.com/events/cnjb53m25q5gi6bjpvgffjb6mpg?authkey=CLTk7dv2wJfbWQ",
    "lat":41.859665,
    "lng":-71.347261
  },
  {
    "name":"Google I/O Extended Bandung 2014",
    "link":"https://plus.google.com/u/0/b/102955892548542158157/events/c57hr481k7ufu55io9585nnj2k4",
    "lat":-6.8964237,
    "lng":107.61401
  },
  {
    "name":"Google I/O Extended Uzhhorod",
    "link":"https://plus.google.com/events/c43nphiua0hcasl531hm5nlpnuc",
    "lat":48.6193817,
    "lng":22.2796376
  },
  {
    "name":"Google I/O Extended in Fab Kura",
    "link":"https://plus.google.com/events/ccqognu0hua54stuhubqu3vtkus",
    "lat":37.49777,
    "lng":139.922479
  },
  {
    "name":"Google IO Extended @ ASU Skysong",
    "link":"https://plus.google.com/events/cm2o2olk34cfn7urdvjuiaskrjc",
    "lat":33.4640804,
    "lng":-111.9231856
  },
  {
    "name":"Google I/O Extended Jakarta 2014",
    "link":"https://plus.google.com/events/c261ipni8345ob5a5kig5pgqt8c",
    "lat":-6.1802966,
    "lng":106.8220973
  },
  {
    "name":"Google I/O Extended Bandung 2014",
    "link":"https://plus.google.com/u/0/events/c57hr481k7ufu55io9585nnj2k4",
    "lat":-6.895468,
    "lng":107.613978
  },
  {
    "name":"Google I/O Extended Semarang 2014",
    "link":"https://plus.google.com/u/0/events/cdrjnmjnsbt3d0uuh036blh6oc8",
    "lat":-6.988272,
    "lng":110.4169
  },
  {
    "name":"Google I/O Extended Mumbai 2014",
    "link":"https://plus.google.com/u/0/events/c08q4mfruj37q1fqj6gcriti220",
    "lat":19.128435,
    "lng":72.915592
  },
  {
    "name":"IO 14 @ Home",
    "link":"https://plus.google.com/events/ch392o0f1tmrghbuh17hc93ui18?authkey=CIKLlpX02-G6Qw",
    "lat":24.4739973,
    "lng":86.700207
  },
  {
    "name":"Google I/O 2014 Extended - GDG Rio Cuarto",
    "link":"https://plus.google.com/u/0/events/cs534rlrefvsu2ao3mm075v3dbo",
    "lat":-33.1014969,
    "lng":-64.3485356
  },
  {
    "name":"Google IO on the Little Red Dot ",
    "link":"https://plus.google.com/events/ct8n5gvmrfle5pd4vtavgf1elu0?authkey=CPLIsMS4p_n0OQ",
    "lat":1.283314,
    "lng":103.833553
  },
  {
    "name":"Google I/O Extended Brno",
    "link":"https://plus.google.com/u/0/events/cas2v30cssofse0ip62cdol7msc",
    "lat":49.1881366,
    "lng":16.5888452
  },
  {
    "name":"Cigelj",
    "link":"https://plus.google.com/events/cd4kmdbh2msqf9m19vjba6jtha0",
    "lat":43.846924,
    "lng":18.374119
  },
  {
    "name":"Sandhu",
    "link":"https://plus.google.com/events/ct3vq9td79l94asqp6ldk72ono8?authkey=CKig25OGmds4",
    "lat":37.3799437,
    "lng":-121.9977283
  },
  {
    "name":"Shaastra",
    "link":"https://plus.google.com/u/0/109668817957263291803/about",
    "lat":12.9946552,
    "lng":80.2333045
  },
  {
    "name":"Google I/O Extended Event - GDG Bamenda",
    "link":"https://plus.google.com/events/cjkaqvu05b6uu3vlnsd3pg2n9r4",
    "lat":5.9798957,
    "lng":10.1657046
  },
  {
    "name":"Google I/O '14 Extended",
    "link":"https://plus.google.com/events/c5tp9tou933tr32ffpseavbj98k",
    "lat":6.181287,
    "lng":1.191936
  },
  {
    "name":"Google I/O Extended at Incubate",
    "link":"https://plus.google.com/events/c4m8sou958cnj7nhv5srn3ov61s",
    "lat":52.6323267,
    "lng":-1.1273612
  },
  {
    "name":"GDG Women I/O Extended ",
    "link":"https://plus.google.com/events/c16pma32qrkjrq3nqqgkrmsocmc?authkey=CI-cxYDBnYmBgAE",
    "lat":-0.106307,
    "lng":34.751993
  },
  {
    "name":"GDG Women I/O Extended ",
    "link":"https://plus.google.com/events/c16pma32qrkjrq3nqqgkrmsocmc?authkey=CI-cxYDBnYmBgAE",
    "lat":-0.106307,
    "lng":34.751993
  },
  {
    "name":"Traverse City Google I/O 2014",
    "link":"https://plus.google.com/events/ci4uv8rtbmquggqm84r091i4mto?authkey=CPXEqcvlh4G9_AE",
    "lat":44.753174,
    "lng":-85.5953149
  },
  {
    "name":"Google IO Extend JKUAT",
    "link":"https://plus.google.com/u/0/events/cj375obu8g0p5fk10ospvrn3h04",
    "lat":-1.1619937,
    "lng":36.9430761
  },
  {
    "name":"Google I/O Extended Tel Aviv",
    "link":"https://plus.google.com/u/0/b/104207746710491978555/events/c9rrolsfld3ccp47suc6ul7jd1s",
    "lat":32.070281,
    "lng":34.794166
  },
  {
    "name":"Google I/O Extended Cairo",
    "link":"https://plus.google.com/events/c0jd1jk2q5u93j06vkrtbos85p0",
    "lat":30.04437,
    "lng":31.238868
  },
  {
    "name":"Google I/O Extended Fribourg",
    "link":"https://plus.google.com/events/cdeg1hcvqo4tnpdcic3d4pcc710",
    "lat":46.793328,
    "lng":7.158959
  },
  {
    "name":"Google I/O Extended @SPb",
    "link":"https://plus.google.com/events/crdseoesk2ef9kb8fafi53qhuq8",
    "lat":59.9334241,
    "lng":30.3579999
  },
  {
    "name":"Tramelli",
    "link":"https://plus.google.com/u/0/b/110018964917349987655/events/cpi0uou7ijhhmhbicqf5p3rt3qc",
    "lat":45.046693,
    "lng":9.686578
  },
  {
    "name":"Google I/O 2014 Extended - GDG ENUGU",
    "link":"https://plus.google.com/u/0/b/107982492044424122264/events/crn691k7f19992vt0enhmjlnit0",
    "lat":6.4587696,
    "lng":7.5249052
  },
  {
    "name":"Google I/O extended Pardubice",
    "link":"https://plus.google.com/events/cpsb6nj2lh6iuo97rpm3sfevl8g",
    "lat":50.0371073,
    "lng":15.7755385
  },
  {
    "name":"Google I/O Extended 2014 Belo Horizonte",
    "link":"https://plus.google.com/u/0/events/cporqubkc19i1lj21lg6pitrspo?e=-RedirectToSandbox",
    "lat":-19.9294021,
    "lng":-43.9407646
  },
  {
    "name":"Google I/O Extended - Floripa",
    "link":"https://plus.google.com/events/c2ahgk3osii5j189hnbfc6ssrrc?authkey=COiArazcpPHBdg",
    "lat":-27.600852,
    "lng":-48.516555
  },
  {
    "name":"Google IO Extended @ ASU Skysong",
    "link":"https://plus.google.com/events/cm2o2olk34cfn7urdvjuiaskrjc",
    "lat":33.3479845,
    "lng":-111.9121957
  },
  {
    "name":"UKOV x I/O Extended",
    "link":"https://plus.google.com/events#events/c1lo7q6iov5lfpc4th4c224tbqk?authkey=CLml-J6m-qOUvwE",
    "lat":37.4020584,
    "lng":127.1086288
  },
  {
    "name":"Google I/O Extended Bangkok",
    "link":"https://plus.google.com/events/c6oorbvjeajo9eg1uis35ntgrc4",
    "lat":13.7245332,
    "lng":100.587497
  },
  {
    "name":"Stanco I/O - Google I/O Extended",
    "link":"https://plus.google.com/events/ckhcl5b6qirme9nq3g4hn044nj0",
    "lat":37.6521095,
    "lng":-121.025813
  },
  {
    "name":"Google I/O at Emakina",
    "link":"https://plus.google.com/events/cv7a2giooevo23nnsfk0gn5jjgg?authkey=CJ6r2KnOtrns_QE",
    "lat":50.795909,
    "lng":4.417825
  },
  {
    "name":"Google I/O Extended Cyprus",
    "link":"https://plus.google.com/b/117335552237012474473/events/c7r72ub5vrquli7na5fov86l6to",
    "lat":34.6748711,
    "lng":33.0428597
  },
  {
    "name":"Google i/o Nacht im mobfish Teich",
    "link":"https://plus.google.com/u/0/b/108512071896538779284/events/cgcolr6up5p0ii8aune48ctkssc",
    "lat":52.18103,
    "lng":10.56049
  },
  {
    "name":"Google I/O Extended and Gradle CodeLab",
    "link":"https://plus.google.com/events/cgl3o4s2q5dihm9jj3qs93lldsk",
    "lat":35.2309931,
    "lng":129.0823062
  },
  {
    "name":"Google I/O Extended Alexandria",
    "link":"https://plus.google.com/events/ciajq122ql11i84h31kqaqcf0i0",
    "lat":31.2015325,
    "lng":29.9010548
  },
  {
    "name":"Google I/O Extended Ndéré 2014",
    "link":"https://plus.google.com/u/0/b/107754356908783968376/events/clh5bb46h3eslsipqh22gcbp1p4",
    "lat":7.416512,
    "lng":13.549932
  },
  {
    "name":"Google I/O Extended 2014 @ Bucheon",
    "link":"https://plus.google.com/u/0/events/ctmkfecgttoivs0ec3btk136sgk",
    "lat":37.49479,
    "lng":126.754049
  },
  {
    "name":"Google IO Extended - Rio de Janeiro",
    "link":"https://plus.google.com/b/104464728601797437216/events/cr4gl94rmqn7ob9avq8bctauoqc",
    "lat":-22.954087,
    "lng":-43.191839
  },
  {
    "name":"Google I/O Extended 2014 -Yerevan",
    "link":"https://plus.google.com/events/cgvvt8s6g3o33872opvpbaniqfo",
    "lat":40.16157,
    "lng":44.519096
  },
  {
    "name":"iXperience Google I/O 2014 extended livestream in Cape Town",
    "link":"https://plus.google.com/events/c6897caapgrbr0emcpg0j09i17o",
    "lat":-33.92863,
    "lng":18.4103299
  },
  {
    "name":"I/O '14 Extended at CoCo Uptown",
    "link":"https://plus.google.com/events/c1aao6h19dg0luuardvf1ibmmg0",
    "lat":44.948858,
    "lng":-93.292812
  },
  {
    "name":"GDG RioCuarto",
    "link":"https://plus.google.com/u/0/events/ciksc318mgdnjn5l1bkslm1am7g",
    "lat":-33.1015156,
    "lng":-64.3506573
  },
  {
    "name":"I/O 2014 iTec Río Cuarto",
    "link":"https://plus.google.com/u/0/events/ccr70q2d62h5k2e1jh2ieknupgk",
    "lat":-33.1015156,
    "lng":-64.3485115
  },
  {
    "name":"Google I/O Extended: GDG Ahmedabad",
    "link":"https://plus.google.com/events/c6ldc1n467s3aqmh8fh0rok499s",
    "lat":23.066222,
    "lng":72.531804
  },
  {
    "name":"Google IO Extended Lannion",
    "link":"https://plus.google.com/events/cjpesp3jffpbqjlrogblo76aa5c",
    "lat":48.729633,
    "lng":-3.462405
  },
  {
    "name":"Cejas",
    "link":"https://plus.google.com/events/cu1err27e2me70kdolnbf8k38dc",
    "lat":41.3857712,
    "lng":2.1700924
  },
  {
    "name":"Google IO Extended 2014 Vinnytsya",
    "link":"https://plus.google.com/u/0/events/chlk08teujpls62n17onumh7v58",
    "lat":49.232901,
    "lng":28.471782
  },
  {
    "name":"Google I/O Extend",
    "link":"https://plus.google.com/b/115699391295509082719/events/cj5e0vn4ag1gme2kp692iimng88",
    "lat":32.0467907,
    "lng":118.7982649
  },
  {
    "name":"Google I/O Extended Juiz de Fora",
    "link":"https://plus.google.com/events/cnf9s96n7v4rn01ov68a5j01n4s",
    "lat":-21.761979,
    "lng":-43.3522642
  },
  {
    "name":"Google I/O kerekasztal",
    "link":"https://plus.google.com/events/ch3ashek9vlvmub15gstmq7fduc",
    "lat":47.4851653,
    "lng":19.0768531
  },
  {
    "name":"Google IO Event",
    "link":"https://plus.google.com/events/c3jcsar8pfqn326c95cdjb73ke8?authkey=CLOI59qD3__wDg",
    "lat":38.7734305,
    "lng":-90.7919764
  },
  {
    "name":"Google I/O Extended Phnom Penh",
    "link":"https://plus.google.com/events/cj2qh1gdpo99s13uujdher6h8ps",
    "lat":11.55511,
    "lng":104.924534
  },
  {
    "name":"Google IO Extended 2014 GDG Béja",
    "link":"https://plus.google.com/events/cq235fht5u324l0hta0g79ek4i4",
    "lat":36.7297099,
    "lng":9.1876022
  },
  {
    "name":"Google IO 2014 Extended GDG Béja",
    "link":"https://plus.google.com/events/cq235fht5u324l0hta0g79ek4i4",
    "lat":36.7297099,
    "lng":9.1876022
  },
  {
    "name":"GDG biratnagar  google io extended ",
    "link":"https://plus.google.com/u/0/b/109406170948369243943/dashboard/overview",
    "lat":26.6628716,
    "lng":87.389524
  },
  {
    "name":"Google I/O Extended Davao 2014",
    "link":"https://plus.google.com/u/0/events/cfj39cm88ebgtu0cnihltaacp2c",
    "lat":7.070894,
    "lng":125.606171
  },
  {
    "name":"GDG JLM - I\\O Extended",
    "link":"https://plus.google.com/u/0/b/101779847320686747978/events/cp858ec5a7hgef4a4nqa9i987bc",
    "lat":31.7674953,
    "lng":35.2176951
  },
  {
    "name":"Google I/O Extended Goiânia",
    "link":"https://plus.google.com/events/cfb00h7qhgi0uevbnfe30sk1tuk",
    "lat":-16.7008222,
    "lng":-49.2593189
  },
  {
    "name":"Google I/O Extended Cluj / Live Streaming",
    "link":"https://plus.google.com/u/2/events/c4a1sol4qbull1aecqh8pktp588",
    "lat":46.770845,
    "lng":23.584789
  },
  {
    "name":"Google I/O 2014 Extended - ENUGU",
    "link":"https://plus.google.com/u/0/b/107982492044424122264/events/crn691k7f19992vt0enhmjlnit0",
    "lat":6.4587696,
    "lng":7.5249052
  },
  {
    "name":"Google IO Ext | Mumbai",
    "link":"https://plus.google.com/u/0/b/109582787530740759595/events",
    "lat":19.0822507,
    "lng":72.8812042
  },
  {
    "name":"Google I/O Extended JKUAT Main campus",
    "link":"https://plus.google.com/u/0/events/cj375obu8g0p5fk10ospvrn3h04",
    "lat":-1.099,
    "lng":37.013449
  },
  {
    "name":"Google I/O 2014 Extended Khon Kaen",
    "link":"https://plus.google.com/events/cfoeajb0uhutsva01gv4oakr9lc",
    "lat":16.4722341,
    "lng":102.8257548
  },
  {
    "name":"Google I/O Extended at Groupon ",
    "link":"https://plus.google.com/u/0/events/c3q55ns7s8615hk64mu9jrmqon0",
    "lat":47.5980738,
    "lng":-122.3284405
  },
  {
    "name":"Google I/O Extended Semarang 2014",
    "link":"https://plus.google.com/events/cdrjnmjnsbt3d0uuh036blh6oc8?authkey=CMfc38no3oHEsAE",
    "lat":-6.988272,
    "lng":110.4169
  },
  {
    "name":"Google I/O Extented 2014: ILAM",
    "link":"https://plus.google.com/b/112807703637841959875/events/c57s4mjpcej3ifma9uf0845rkcs",
    "lat":26.907864,
    "lng":87.9243346
  },
  {
    "name":"GDG Biratnagar I/O Extended",
    "link":"https://plus.google.com/events/cutrvfahr2vuppds206tssgs3as",
    "lat":26.6696261,
    "lng":87.3812521
  },
  {
    "name":"Google I/O Extended Nanjing GDG",
    "link":"https://plus.google.com/b/115699391295509082719/events/cj5e0vn4ag1gme2kp692iimng88",
    "lat":32.047097,
    "lng":118.7981884
  }
]
